stop_id,stop_code,stop_name,stop_lat,stop_lon,location_type,wheelchair_boarding,transport_type
17609,17609,"ПР. АВИАКОНСТРУКТОРОВ, 47",60.027851,30.222640,0,2,bus
17611,17611,"ПР. АВИАКОНСТРУКТОРОВ, 32",60.027507,30.221964,0,2,bus
17629,17629,"ПОНТОННЫЙ, ВОКЗАЛ",59.785067,30.627792,0,2,bus
17630,17630,ДОРОГА НА КОЛПИНО,59.775908,30.653787,0,2,bus
17631,17631,"ОТРАДНОЕ, СУДОРЕМ.МАСТЕРСКИЕ",59.760005,30.765173,0,2,bus
17658,17658,"ОТРАДНОЕ, СУДОРЕМ.МАСТЕРСКИЕ",59.760150,30.763510,0,2,bus
17659,17659,ДОРОГА НА КОЛПИНО,59.776227,30.654334,0,2,bus
17660,17660,"ПОНТОННЫЙ, ВОКЗАЛ",59.785698,30.626471,0,2,bus
17551,17551,СЧАСТЛИВАЯ УЛ.,59.846170,30.270596,0,2,bus
17558,17558,УЛ РИХАРДА ЗОРГЕ УГ УЛ ДОБЛЕСТИ,59.850624,30.178328,0,2,bus
17575,17575,СЕВЕРНЫЙ ПР.,60.031565,30.364430,0,2,bus
17591,17591,"ПРЕДПОРТОВАЯ УЛ., 10",59.832158,30.306151,0,2,bus
17592,17592,СТ. ПРЕДПОРТОВАЯ,59.832179,30.295680,0,2,bus
17510,17510,ЗАМШИНА УЛ.,59.966858,30.393806,0,2,bus
17409,17409,"УСТЬ-ИЖОРА, УЛ.ТРУДА",59.797670,30.604840,0,2,bus
17410,17410,"УСТЬ-ИЖОРА, УЛ.ТРУДА",59.797590,30.604595,0,2,bus
17452,17452,УЛ. ДИМИТРОВА,59.851573,30.398738,0,2,bus
17470,17470,"АВТОБУСНАЯ СТАНЦИЯ ""РУЧЬИ"" [ВЫСАДКИ И ПОСАДКИ НЕТ]",60.003503,30.439596,0,2,bus
17469,17469,НАБ. РЕКИ ФОНТАНКИ,59.915931,30.279356,0,2,bus
17874,17874,"ПОС. ВАРТЕМЯГИ, ПОЧТА",60.166413,30.316319,0,2,bus
17875,17875,"ПОС. ВАРТЕМЯГИ,  БОЛЬНИЦА",60.170130,30.319353,0,2,bus
17872,17872,"ПОС. ВАРТЕМЯГИ, 9 КМ",60.163626,30.313728,0,2,bus
17873,17873,"ПОС. ВАРТЕМЯГИ, ПОЧТА",60.166401,30.316807,0,2,bus
17878,17878,"ПОС. ВАРТЕМЯГИ, СТОЛОВАЯ",60.176087,30.315624,0,2,bus
17876,17876,"ПОС. ВАРТЕМЯГИ, БОЛЬНИЦА",60.170094,30.318910,0,2,bus
17877,17877,"ПОС. ВАРТЕМЯГИ, СТОЛОВАЯ",60.176157,30.316185,0,2,bus
17859,17859,"ПОС. ДРАНИШНИКИ, СОВХОЗ № 3",60.135491,30.258040,0,2,bus
17858,17858,"ПОС. ДРАНИШНИКИ, СОВХОЗ № 3",60.135420,30.258405,0,2,bus
17857,17857,СМОЛЬНЫЙ,59.946001,30.389299,0,2,bus
17856,17856,"ПОС.ДРАНИШНИКИ,4 КМ",60.129225,30.257029,0,2,bus
17863,17863,ПОС. ЛУППОЛОВО,60.152158,30.276679,0,2,bus
17862,17862,6 КМ,60.145747,30.269694,0,2,bus
17860,17860,6 КМ,60.145762,30.270228,0,2,bus
17867,17867,ОТДЕЛЕНИЕ СОВХОЗА №3,60.157181,30.291981,0,2,bus
17865,17865,ПОС. ЛУППОЛОВО,60.152178,30.276201,0,2,bus
17871,17871,"ПОС. ВАРТЕМЯГИ, 9 КМ",60.163663,30.314173,0,2,bus
17870,17870,8 КМ,60.161233,30.305322,0,2,bus
17869,17869,8 КМ,60.161099,30.305357,0,2,bus
17868,17868,ОТДЕЛЕНИЕ СОВХОЗА №3,60.157317,30.291876,0,2,bus
17904,17904,"ПОС. АГАЛАТОВО, ЖИЛГОРОДОК",60.218120,30.295390,0,2,bus
17905,17905,ПР. ЧЕРНЫШЕВСКОГО,59.948980,30.360020,0,2,bus
17907,17907,"ПОС. АГАЛАТОВО, ДОР. НА СЕРТОЛОВО",60.219844,30.288996,0,2,bus
17908,17908,"ПОС. АГАЛАТОВО, ДОР. НА СЕРТОЛОВО",60.219704,30.291769,0,2,bus
17911,17911,ГАГАРИНСКАЯ УЛ.,59.948370,30.343690,0,2,bus
17912,17912,19 КМ,60.231359,30.262702,0,2,bus
17913,17913,ГАНГУТСКАЯ УЛ.,59.944534,30.342693,0,2,bus
17914,17914,19 КМ,60.231365,30.262045,0,2,bus
17915,17915,ТРОИЦКАЯ ПЛ.,59.953807,30.323403,0,2,bus
17917,17917,22 КМ,60.257266,30.246279,0,2,bus
17918,17918,22 КМ,60.257325,30.245780,0,2,bus
17919,17919,ДОРОГА НА ЕЛИЗАВЕТИНКУ,60.273177,30.231473,0,2,bus
17891,17891,"ОТД. ПЛЕМ. 3-ДА ""ЛЕСНОЕ"", ПО ТРЕБОВАНИЮ",60.182815,30.321206,0,2,bus
17890,17890,"ОТД. ПЛЕМ. 3-ДА ""ЛЕСНОЕ"", ПО ТРЕБОВАНИЮ",60.182818,30.321769,0,2,bus
17893,17893,12 КМ,60.185520,30.315211,0,2,bus
17892,17892,12 КМ,60.185572,30.315796,0,2,bus
17895,17895,"ПОС. КАСИМОВО, 1",60.193640,30.312328,0,2,bus
17894,17894,"ПОС. КАСИМОВО, 1",60.193549,30.312953,0,2,bus
17897,17897,"ПОС. КАСИМОВО, 2",60.199311,30.311553,0,2,bus
17896,17896,"ПОС. КАСИМОВО, 2",60.199267,30.312111,0,2,bus
17899,17899,"ПОС. КАСИМОВО, 3",60.204534,30.309761,0,2,bus
17898,17898,"ПОС. КАСИМОВО, 3",60.204450,30.310587,0,2,bus
17901,17901,15 КМ,60.211879,30.302838,0,2,bus
17900,17900,15 КМ,60.211780,30.303640,0,2,bus
17903,17903,"ПОС. АГАЛАТОВО, ЖИЛГОРОДОК",60.218053,30.296125,0,2,bus
17814,17814,"УЛ. СОФЬИ КОВАЛЕВСКОЙ, УГ. ПР. НАУКИ",60.010825,30.409177,0,2,bus
17815,17815,"УЛ. СОФЬИ КОВАЛЕВСКОЙ,7",60.014554,30.412919,0,2,bus
17812,17812,"СЕВЕРНЫЙ ПР., УГ. СВЕТЛАНОВСКОГО ПР.",60.026400,30.390463,0,2,bus
17822,17822,"ПР. НАУКИ,УГ. УЛ. КАРПИНСКОГО",60.007070,30.423750,0,2,bus
17823,17823,"УЛ. КАРПИНСКОГО,28",60.009880,30.426870,0,2,bus
17820,17820,"УЛ. КАРПИНСКОГО,28",60.009889,30.426641,0,2,bus
17818,17818,"СЕВЕРНЫЙ ПР.,91",60.016197,30.428516,0,2,bus
17819,17819,"УЛ. КАРПИНСКОГО,38",60.012414,30.429642,0,2,bus
17817,17817,"СЕВЕРНЫЙ ПР.,УГ. УЛ. СОФЬИ КОВАЛЕВСКОЙ",60.018946,30.417637,0,2,bus
17799,17799,"УЛ. МАРШАЛА ЗАХАРОВА,19",59.854229,30.191814,0,2,bus
17798,17798,УЛ. ДЕСАНТНИКОВ,59.852627,30.198865,0,2,bus
17797,17797,"ПОРТОВАЯ УЛ., УГ.ПР.СТАЧЕК",59.864007,30.259470,0,2,bus
17796,17796,"ЭЛЕВАТОРНАЯ ПЛ.,2",59.864578,30.233796,0,2,bus
17795,17795,ДОР. К РЫБНОМУ ПОРТУ,59.866409,30.208851,0,2,bus
17794,17794,УГОЛЬНАЯ ГАВАНЬ,59.869318,30.201652,0,2,bus
17793,17793,ДОР.К РЫБНОМУ ПОРТУ,59.866808,30.208282,0,2,bus
17792,17792,"ЭЛЕВАТОРНАЯ ПЛ.,2",59.864718,30.233635,0,2,bus
17803,17803,"УЛ. МАРШАЛА ЗАХАРОВА,19",59.853748,30.192270,0,2,bus
17802,17802,ПР. КУЗНЕЦОВА,59.855105,30.186310,0,2,bus
17801,17801,"УЛ. ДОБЛЕСТИ, УГ. УЛ. МАРШАЛА ЗАХАРОВА",59.857094,30.177523,0,2,bus
17800,17800,ПР. КУЗНЕЦОВА,59.855782,30.184894,0,2,bus
17847,17847,Б. МОНЕТНАЯ УЛ.,59.961944,30.315034,0,2,bus
17855,17855,"ПОС.ДРАНИШНИКИ,4 КМ",60.129238,30.257453,0,2,bus
17848,17848,ТРОИЦКАЯ ПЛ.,59.954097,30.322534,0,2,bus
17850,17850,"ЛИТЕЙНЫЙ ПР., УГ. КИРОЧНОЙ УЛ.",59.943964,30.349538,0,2,bus
17830,17830,"СЕВЕРНЫЙ ПР.,91",60.016612,30.428253,0,2,bus
17839,17839,"УЛ. СОФЬИ КОВАЛЕВСКОЙ,УГ. ПР. НАУКИ",60.010710,30.408053,0,2,bus
17838,17838,"УЛ. СОФЬИ КОВАЛЕВСКОЙ,7",60.014479,30.412501,0,2,bus
17834,17834,ВЯЗЕМСКИЙ ПЕР.,59.975828,30.299734,0,2,bus
17754,17754,"ПОС. ЮККИ,1",60.109424,30.276030,0,2,bus
17753,17753,"ПОС. ЮККИ,2 ( ВЫСАДКА)",60.110319,30.283221,0,2,bus
17752,17752,"ПОС. ЮККИ,1",60.109395,30.277301,0,2,bus
17757,17757,УЛ. ШИШКИНА,60.087180,30.261017,0,2,bus
17756,17756,"ПОС. ОСИНОВАЯ РОЩА,1",60.109800,30.253333,0,2,bus
17750,17750,"ПОС. ОСИНОВАЯ РОЩА,1",60.109442,30.252665,0,2,bus
17749,17749,УЛ.ШИШКИНА,60.087518,30.261162,0,2,bus
17730,17730,ЯХТЕННАЯ УЛ.,59.986916,30.215881,0,2,bus
17728,17728,БОЛЬНИЦА,59.992710,30.145122,0,2,bus
17790,17790,"ПОРТОВАЯ УЛ.,УГ.ПР.СТАЧЕК",59.864174,30.260135,0,2,bus
17689,17689,СЧАСТЛИВАЯ УЛ. УГ. БУЛЬВ.НОВАТОРОВ,59.845855,30.270263,0,2,bus
17725,17725,"Ж.-Д.СТ. ""ПОС.ЛИСИЙ НОС""",60.017097,30.010582,0,2,bus
17724,17724,"ПОС. ЛИСИЙ НОС,ВОЕННАЯ УЛ.",60.027928,29.998400,0,2,bus
17727,17727,"Ж.-Д. СТ.""ОЛЬГИНО""",59.994426,30.133739,0,2,bus
17726,17726,"МОТЕЛЬ-КЕМПИНГ ""ОЛЬГИНО""",59.995541,30.116819,0,2,bus
17721,17721,БАЗА РСУ,60.006651,29.742284,0,2,bus
17720,17720,16 КВАРТАЛ,60.002725,29.757231,0,2,bus
17723,17723,ГОРСКАЯ,60.037479,29.975258,0,2,bus
17722,17722,"КРОНШТАДСКОЕ ШОССЕ,38",60.011423,29.725850,0,2,bus
17717,17717,БАЗА РСУ,60.006466,29.742230,0,2,bus
17716,17716,"КРОНШТАДСКОЕ ШОССЕ, 38",60.011615,29.724439,0,2,bus
17719,17719,ГРАЖДАНСКАЯ УЛ.,59.997763,29.766163,0,2,bus
17718,17718,16 КВАРТАЛ,60.002505,29.757505,0,2,bus
17713,17713,"Ж.Д. СТ. ""ПОС.ЛИСИЙ НОС""",60.017210,30.011084,0,2,bus
17712,17712,"МОТЕЛЬ-КЕМПИНГ ""ОЛЬГИНО""",59.996607,30.115183,0,2,bus
17715,17715,ГОРСКАЯ,60.039952,29.973882,0,2,bus
17714,17714,"ПОС. ЛИСИЙ НОС,ВОЕННАЯ УЛ.",60.027870,29.999381,0,2,bus
17710,17710,"ОЛЬГИНО,КЛЮЧЕВОЙ ПР.",59.995475,30.144255,0,2,bus
18151,18151,ДУНАЙСКИЙ ПР.,59.838077,30.396938,0,2,bus
18150,18150,ДУНАЙСКИЙ ПР.,59.839727,30.395930,0,2,bus
18149,18149,"БУДАПЕШТСКАЯ УЛ., УГ. УЛ. Я. ГАШЕКА",59.835738,30.400028,0,2,bus
18155,18155,ПЛОВДИВСКАЯ УЛ.,59.841700,30.393269,0,2,bus
18154,18154,МАЛАЯ КАШТАНОВАЯ АЛЛЕЯ,59.843915,30.391070,0,2,bus
18153,18153,УЛ. ДИМИТРОВА,59.847779,30.387132,0,2,bus
18152,18152,МАЛАЯ КАШТАНОВАЯ АЛЛЕЯ,59.844567,30.391037,0,2,bus
18174,18174,ЛЕНИНГРАДСКАЯ УЛ.,59.783933,30.116143,0,2,bus
18175,18175,"АННИНСКОЕ ШОССЕ, 30",59.783610,30.107960,0,2,bus
18172,18172,"АННИНСКОЕ ШОССЕ, УГ. ТАЛЛИНСКОГО ШОССЕ",59.781100,30.132920,0,2,bus
18170,18170,"ДАЧНЫЙ ПР., 23",59.839748,30.259416,0,2,bus
18171,18171,"СТ. МЕТРО ""ПР. ВЕТЕРАНОВ""",59.842180,30.249930,0,2,bus
18169,18169,УЛ. ПОДВОДНИКА КУЗЬМИНА,59.839781,30.272419,0,2,bus
18116,18116,"УЛ. ОДОЕВСКОГО, 28",59.948048,30.240963,0,2,bus
18119,18119,"ПР. КИМА, УГ. УРАЛЬСКОЙ УЛ.",59.955214,30.241606,0,2,bus
18113,18113,БУХАРЕСТСКАЯ УЛ.,59.829308,30.423728,0,2,bus
18112,18112,"УЛ.ЧУДНОВСКОГО, УГ.ТОВАРИЩЕСКОГО ПР.",59.923863,30.475021,0,2,bus
18115,18115,"СТ. МЕТРО ""ПРИМОРСКАЯ""",59.948060,30.232730,0,2,bus
18114,18114,ТОВАРИЩЕСКИЙ ПР.,59.922395,30.478368,0,2,bus
18125,18125,"ПУЛКОВСКАЯ УЛ., УГ. УЛ. ОРДЖОНИКИДЗЕ",59.842178,30.348425,0,2,bus
18124,18124,ПР. ЮРИЯ ГАГАРИНА,59.844366,30.338930,0,2,bus
18126,18126,"ПУЛКОВСКАЯ УЛ., ТОРГОВЫЙ ЦЕНТР",59.838522,30.349458,0,2,bus
18123,18123,УЛ. ТИПАНОВА,59.853775,30.329473,0,2,bus
18122,18122,УЛ. ГАСТЕЛЛО,59.857720,30.329339,0,2,bus
18128,18128,"БУХАРЕСТСКАЯ УЛ., УГ. УЛ. О.ДУНДИЧА",59.832446,30.418916,0,2,bus
18129,18129,МАЛАЯ БАЛКАНСКАЯ УЛ.,59.828879,30.421722,0,2,bus
18083,18083,ПИОНЕРСКАЯ УЛ.,59.955408,30.298448,0,2,bus
18082,18082,ПР. ЮРИЯ ГАГАРИНА,59.844619,30.336790,0,2,bus
18080,18080,ПЕР. ТАЛАЛИХИНА,59.952002,30.297192,0,2,bus
18087,18087,УЛ. ЛЕНИНА,59.961720,30.305150,0,2,bus
18086,18086,УЛ. ЛЕНИНА,59.961429,30.308050,0,2,bus
18085,18085,"УЛ. ОРДЖОНИКИДЗЕ, УГ. УЛ. ЛЕНСОВЕТА",59.844752,30.330428,0,2,bus
18084,18084,ВВЕДЕНСКАЯ УЛ.,59.957993,30.302535,0,2,bus
18091,18091,"УЛ. ПРОФЕССОРА ПОПОВА, УГ. ПР. МЕДИКОВ",59.971385,30.314991,0,2,bus
18090,18090,АЛТАЙСКАЯ УЛ.,59.849055,30.330229,0,2,bus
18089,18089,"СТ. МЕТРО ""ПЕТРОГРАДСКАЯ""",59.966676,30.313200,0,2,bus
18088,18088,"СТ. МЕТРО ""ПЕТРОГРАДСКАЯ""",59.966192,30.313251,0,2,bus
18095,18095,АПТЕКАРСКИЙ ПР. ПО АПТЕКАРСКОЙ НАБ.,59.976555,30.322276,0,2,bus
18094,18094,УЛ. АКАДЕМИКА ПАВЛОВА,59.975062,30.317416,0,2,bus
18092,18092,"УЛ. ПРОФЕССОРА ПОПОВА, УГ. ПР. МЕДИКОВ",59.970767,30.313962,0,2,bus
18098,18098,"РОССИЙСКИЙ ПР., УГОЛ УЛ. ЛАТЫШСКИХ СТРЕЛКОВ",59.925359,30.471843,0,2,bus
18099,18099,ИНСТРУМЕНТАЛЬНАЯ УЛ.,59.971954,30.324433,0,2,bus
18096,18096,АПТЕКАРСКАЯ НАБ.,59.973602,30.327169,0,2,bus
18097,18097,УЛ. ТИПАНОВА,59.854240,30.329980,0,2,bus
18102,18102,УЛ. ГАСТЕЛЛО,59.859083,30.329639,0,2,bus
18103,18103,УЛ.ВОРОШИЛОВА 9,59.924954,30.446547,0,2,bus
18100,18100,УЛ.ДЖОНА РИДА,59.923553,30.455106,0,2,bus
18101,18101,АПТЕКАРСКИЙ ПР. ПО УЛ. ПРОФ. ПОПОВА,59.971070,30.320700,0,2,bus
18106,18106,ВВЕДЕНСКАЯ УЛ.,59.957546,30.298426,0,2,bus
18104,18104,"УЛ. ФРУНЗЕ, УГ. УЛ. ЛЕНСОВЕТА",59.861938,30.328891,0,2,bus
18105,18105,ШАМШЕВА УЛ.,59.959834,30.301999,0,2,bus
18110,18110,"РОССИЙСКИЙ ПР., УГОЛ ТОВАРИЩЕСКОГО ПР.",59.926202,30.472746,0,2,bus
18111,18111,"ПР. Ю. ГАГАРИНА, УГ. БАССЕЙНОЙ УЛ.",59.864151,30.336699,0,2,bus
18108,18108,"МОСКОВСКИЙ ПР., 194",59.862372,30.321228,0,2,bus
18109,18109,УЛ. КРАСНОГО КУРСАНТА,59.954231,30.293024,0,2,bus
18051,18051,УЛ. ВАСИ АЛЕКСЕЕВА,59.876760,30.271164,0,2,bus
18050,18050,"СТ. МЕТРО ""КИРОВСКИЙ ЗАВОД""",59.879705,30.263343,0,2,bus
18052,18052,КРАСНОПУТИЛОВСКАЯ УЛ.,59.873023,30.267323,0,2,bus
18055,18055,УЛ.ХИМИКОВ 18,59.968637,30.474077,0,2,bus
18057,18057,ПР. НАРОДНОГО ОПОЛЧЕНИЯ,59.847693,30.280048,0,2,bus
18059,18059,УЛ. ЧУДНОВСКОГО,59.924619,30.475259,0,2,bus
18060,18060,УЛ. ЧУДНОВСКОГО 6,59.929133,30.476843,0,2,bus
18062,18062,АЛЕКСАНДРОВСКАЯ БОЛЬНИЦА ,59.928159,30.485653,0,2,bus
18065,18065,"ПР. БОЛЬШЕВИКОВ, УГ. УЛ. ПОДВОЙСКОГО",59.913325,30.477745,0,2,bus
18067,18067,ЖЕЛЕЗНОВОДСКАЯ УЛ.,59.952346,30.245576,0,2,bus
18068,18068,"СТАНЦИЯ МЕТРО ""ПРИМОРСКАЯ""",59.948413,30.232594,0,2,bus
18069,18069,ШКИПЕРСКИЙ ПРОТОК,59.933054,30.235105,0,2,bus
18071,18071,СРЕДНИЙ ПР. В.О.,59.930700,30.236285,0,2,bus
18073,18073,"ЗВЕЗДНАЯ УЛ.,УГ. ПУЛКОВСКОЙ УЛ.",59.834198,30.351094,0,2,bus
18074,18074,ПЛОЩАДЬ МОРСКОЙ СЛАВЫ,59.926900,30.241470,0,2,bus
18076,18076,"ПУЛКОВСКАЯ УЛ., ТОРГОВЫЙ ЦЕНТР",59.838825,30.349697,0,2,bus
18077,18077,"СТ. МЕТРО ""СПОРТИВНАЯ""",59.951567,30.292622,0,2,bus
18078,18078,"СТ. МЕТРО ""СПОРТИВНАЯ""",59.951825,30.292708,0,2,bus
18031,18031,КРАСНОПУТИЛОВСКАЯ УЛ.,59.872899,30.267656,0,2,bus
18029,18029,"УЛ. ЗИНЫ ПОРТНОВОЙ,1",59.856702,30.256476,0,2,bus
18025,18025,"ТАЛЛИНСКАЯ УЛ., УГ. МАЛООХТИНСКОГО ПР.",59.921947,30.407699,0,2,bus
18022,18022,ПР. НАРОДНОГО ОПОЛЧЕНИЯ,59.848070,30.280423,0,2,bus
18023,18023,ЗОЛЬНАЯ УЛ.,59.915644,30.414587,0,2,bus
18020,18020,ГРАНИТНАЯ УЛ.,59.917349,30.412956,0,2,bus
18021,18021,ЗОЛЬНАЯ УЛ.,59.915515,30.414040,0,2,bus
18018,18018,"ОКТЯБРЬСКАЯ НАБ., 8",59.912088,30.419801,0,2,bus
18019,18019,"ОКТЯБРЬСКАЯ НАБ., 8",59.911557,30.420188,0,2,bus
18016,18016,"ОКТЯБРЬСКАЯ НАБ., 18",59.908744,30.427805,0,2,bus
18017,18017,"ОКТЯБРЬСКАЯ НАБ., 18",59.908034,30.428610,0,2,bus
18047,18047,ПР. ШАУМЯНА,59.939359,30.414898,0,2,bus
18046,18046,"МАГНИТОГОРСКАЯ УЛ., 51",59.940143,30.432649,0,2,bus
18045,18045,"МАГНИТОГОРСКАЯ УЛ., 51",59.939961,30.432429,0,2,bus
18043,18043,"МАГНИТОГОРСКАЯ УЛ., 37",59.939237,30.424943,0,2,bus
18042,18042,"МАГНИТОГОРСКАЯ УЛ., 37",59.939095,30.425059,0,2,bus
18041,18041,"МАГНИТОГОРСКАЯ УЛ., 11",59.938778,30.419898,0,2,bus
18040,18040,"МАГНИТОГОРСКАЯ УЛ., 11",59.938456,30.420102,0,2,bus
18038,18038,УЛ. ДЕСАНТНИКОВ ПО ПЕТЕРГОФСКОМУ ШОССЕ,59.846918,30.195952,0,2,bus
18037,18037,КРАСНОГВАРДЕЙСКАЯ ПЛ.,59.941761,30.412838,0,2,bus
18035,18035,"СТ. МЕТРО ""КИРОВСКИЙ ЗАВОД""",59.880141,30.262753,0,2,bus
18034,18034,УЛ. МАРШАЛА ГОВОРОВА,59.879145,30.266583,0,2,bus
18033,18033,УЛ. ВАСИ АЛЕКСЕЕВА,59.877880,30.271583,0,2,bus
17998,17998,"ОКТЯБРЬСКАЯ НАБ., 66",59.879522,30.454520,0,2,bus
17992,17992,"ПР. СОЛИДАРНОСТИ, УГ. УЛ. КОЛЛОНТАЙ",59.924841,30.489805,0,2,bus
17994,17994,"УЛ. ЧУДНОВСКОГО, УГ. УЛ. КРИЖИЖАНСКОГО",59.931334,30.477018,0,2,bus
17995,17995,"УЛ.ЧУДНОВСКОГО,6",59.929126,30.476426,0,2,bus
17989,17989,ПР. СОЛИДАРНОСТИ,59.917510,30.494700,0,2,bus
18012,18012,"УЛ. ХИМИКОВ , УГ. УЛ. КОММУНЫ",59.971248,30.479415,0,2,bus
18014,18014,"ОКТЯБРЬСКАЯ НАБ., 34",59.905828,30.434436,0,2,bus
18009,18009,"УЛ. ПОТАПОВА, УГ.ИРИНОВСКОГО ПР.",59.959106,30.477732,0,2,bus
18008,18008,"ОКТЯБРЬСКАЯ НАБ., 38",59.903396,30.438287,0,2,bus
18011,18011,УЛ. ХИМИКОВ 18,59.968632,30.474645,0,2,bus
18010,18010,"ОКТЯБРЬСКАЯ НАБ., 38",59.903235,30.437708,0,2,bus
18004,18004,"ОКТЯБРЬСКАЯ НАБ., 50",59.888705,30.448565,0,2,bus
18006,18006,"ОКТЯБРЬСКАЯ НАБ., 42",59.895659,30.446473,0,2,bus
18001,18001,УЛ. НОВОСЕЛОВ,59.882843,30.450969,0,2,bus
18000,18000,УЛ. НОВОСЕЛОВ,59.882903,30.451224,0,2,bus
18002,18002,"ОКТЯБРЬСКАЯ НАБ., 54",59.884663,30.449992,0,2,bus
17952,17952,"ПИСКАРЁВСКИЙ ПР.,161",60.005416,30.448437,0,2,bus
17971,17971,УЛ. КОММУНЫ,59.844605,30.027952,0,2,bus
17970,17970,"ДАЧНОЕ, Ж/Д СТ.",59.836730,30.269587,0,2,bus
17969,17969,"ДАЧНОЕ, Ж/Д СТ.",59.836449,30.268750,0,2,bus
17972,17972,УЛ. КОММУНЫ,59.844432,30.027695,0,2,bus
17929,17929,26 КМ,60.293857,30.237755,0,2,bus
17930,17930,26 КМ,60.293398,30.237272,0,2,bus
17931,17931,29 КМ,60.311690,30.259566,0,2,bus
17932,17932,29 КМ,60.311770,30.259220,0,2,bus
17933,17933,ДОРОГА НА ЛЕМБОЛОВО,60.315549,30.264620,0,2,bus
17934,17934,ДОРОГА НА ЛЕМБОЛОВО,60.316326,30.267076,0,2,bus
17920,17920,ДОРОГА НА ЕЛИЗАВЕТИНКУ,60.273269,30.230928,0,2,bus
17922,17922,ДОРОГА НА МАЛЫЕ ЮККИ,60.119368,30.265601,0,2,bus
17923,17923,"ПОС. ПАРГОЛОВО, ПОЧТА",60.092468,30.256912,0,2,bus
17924,17924,РАЗВИЛКА,60.104069,30.248204,0,2,bus
17949,17949,"ПИСКАРЁВСКИЙ ПР.,161",60.005420,30.447880,0,2,bus
17951,17951,"ПИСКАРЁВСКИЙ ПР.,145",60.003244,30.446186,0,2,bus
17950,17950,"ПИСКАРЁВСКИЙ ПР.,145",60.003320,30.445610,0,2,bus
17937,17937,"ДЕР.КЕРРО, ГОРОДОК",60.317747,30.310056,0,2,bus
18420,18420,УЛ. ШЕЛГУНОВА,59.865429,30.452803,0,2,bus
18416,18416,ЗАВОД ЖЕЛЕЗОБЕТОННЫХ ИЗДЕЛИЙ №1,59.827262,30.514752,0,2,bus
18417,18417,"КАРАВАЕВСКАЯ УЛ., 35",59.830680,30.513389,0,2,bus
18418,18418,"КАРАВАЕВСКАЯ УЛ., УНИВЕРСАМ",59.832999,30.506169,0,2,bus
18430,18430,"Г. ПАВЛОВСК, ВОКЗАЛ",59.692958,30.432794,0,2,bus
18405,18405,"УЛ. ОРДЖОНИКИДЗЕ, УГ. ПР. КОСМОНАВТОВ",59.843397,30.356619,0,2,bus
18407,18407,УЛ. ТИПАНОВА,59.853329,30.352355,0,2,bus
18406,18406,"ПР. КОСМОНАВТОВ, 50",59.848148,30.354495,0,2,bus
18400,18400,"ПР. КОСМОНАВТОВ, 50",59.847739,30.354275,0,2,bus
18413,18413,"КАРАВАЕВСКАЯ УЛ., УНИВЕРСАМ",59.832702,30.505933,0,2,bus
18415,18415,"КАРАВАЕВСКАЯ УЛ, 35",59.830500,30.513094,0,2,bus
18414,18414,УЛ.ТЕЛЬМАНА,59.892468,30.489882,0,2,bus
18409,18409,"ПР. КОСМОНАВТОВ, 20",59.860857,30.348983,0,2,bus
18408,18408,ПОЛИКЛИНИКА № 51,59.856980,30.350690,0,2,bus
18411,18411,ПЛ. КОНСТИТУЦИИ,59.853491,30.304563,0,2,bus
18410,18410,"БАССЕЙНАЯ УЛ., УГ. НОВОИЗМАЙЛОВСКОГО ПР.",59.864282,30.304976,0,2,bus
18391,18391,"ПР. КОСМОНАВТОВ, УГ. БАССЕЙНОЙ УЛ.",59.864267,30.347130,0,2,bus
18389,18389,ПЛ. КОНСТИТУЦИИ,59.853634,30.305051,0,2,bus
18398,18398,ПОЛИКЛИНИКА № 51,59.856330,30.350493,0,2,bus
18399,18399,УЛ. ТИПАНОВА,59.852338,30.352188,0,2,bus
18396,18396,ТОВАРИЩЕСКИЙ ПР.,59.915109,30.484293,0,2,bus
18397,18397,КАНОНЕРСКИЙ ОСТРОВ,59.904764,30.217497,0,2,bus
18394,18394,"УЛ. ТЕЛЬМАНА, 45",59.892887,30.483541,0,2,bus
18395,18395,ТОВАРИЩЕСКИЙ ПР.,59.915292,30.486068,0,2,bus
18392,18392,"ПР. КОСМОНАВТОВ, 20",59.860324,30.348895,0,2,bus
18393,18393,"УЛ. ТЕЛЬМАНА, 45",59.892521,30.485044,0,2,bus
18370,18370,"УЛ. КОСТЮШКО, 54",59.844560,30.304590,0,2,bus
18369,18369,"УЛ. КОСТЮШКО, 14",59.847830,30.297250,0,2,bus
18368,18368,"КУБИНСКАЯ УЛ., УГ. УЛ. КОСТЮШКО",59.848633,30.291603,0,2,bus
18353,18353,"М.КАРПАТСКАЯ, УГ.УЛ.ОЛЕКО ДУНДИЧА",59.834860,30.425604,0,2,bus
18355,18355,"КУБИНСКАЯ УЛ., 34",59.861346,30.294778,0,2,bus
18356,18356,"БЛАГОДАТНАЯ УЛ., УГ. КУБИНСКОЙ УЛ.",59.875405,30.300658,0,2,bus
18357,18357,"ДУНАЙСКИЙ ПР., УГ. СОФИЙСКОЙ УЛ.",59.846876,30.430681,0,2,bus
18359,18359,ВАРШАВСКАЯ УЛ.,59.875587,30.314206,0,2,bus
18360,18360,"МОСКОВСКИЙ ПР., УГ. БЛАГОДАТНОЙ УЛ.",59.875972,30.318932,0,2,bus
18361,18361,ВАРШАВСКАЯ,59.875904,30.312840,0,2,bus
18362,18362,НОВОИЗМАЙЛОВСКИЙ ПР.,59.875781,30.305175,0,2,bus
18364,18364,"КУБИНСКАЯ УЛ., 34",59.860885,30.294183,0,2,bus
18367,18367,"ЛЕНИНСКИЙ ПР., УГ. КУБИНСКОЙ УЛ.",59.851357,30.292144,0,2,bus
18339,18339,"УЛ. КОСТЮШКО, 14",59.848032,30.297643,0,2,bus
18338,18338,"УЛ. КОСТЮШКО, 54",59.844853,30.304665,0,2,bus
18341,18341,СКЛАДСКОЙ ПРОЕЗД,59.843544,30.453613,0,2,bus
18340,18340,ГАРАЖНЫЙ ПРОЕЗД,59.842204,30.446156,0,2,bus
18343,18343,СКЛАДСКОЙ ПРОЕЗД,59.843282,30.453114,0,2,bus
18342,18342,"Ж.-Д. СТАНЦИЯ ""ОБУХОВО""",59.847244,30.454755,0,2,bus
18345,18345,ГАРАЖНЫЙ ПРОЕЗД,59.842331,30.445206,0,2,bus
18344,18344,"КУБИНСКАЯ УЛ., УГ. УЛ. КОСТЮШКО",59.848613,30.292069,0,2,bus
18349,18349,М.КАРПАТСКАЯ УЛ.,59.843088,30.421737,0,2,bus
18348,18348,КРАСНОПУТИЛОВСКАЯ УЛ.,59.850395,30.307524,0,2,bus
18351,18351,"МАЛАЯ КАРПАТСКАЯ УЛ., 9",59.838030,30.426162,0,2,bus
18350,18350,УЛ. СЕДОВА,59.861405,30.451730,0,2,bus
18331,18331,БУХАРЕСТСКАЯ УЛ.,59.833270,30.420089,0,2,bus
18329,18329,"СОФИЙСКАЯ УЛ., УГ. ПР. АЛЕКСАНДРОВСКОЙ ФЕРМЫ",59.851505,30.426496,0,2,bus
18334,18334,УЛ. ЯРОСЛАВА ГАШЕКА,59.841452,30.423443,0,2,bus
18335,18335,ГРУЗОВОЙ ПРОЕЗД,59.842374,30.435057,0,2,bus
18333,18333,МОРАВСКИЙ ПЕР.,59.838577,30.426023,0,2,bus
18311,18311,"УЛ.ЛАТЫШСКИХ СТРЕЛКОВ, ШКОЛА",59.927240,30.465852,0,2,bus
18310,18310,"УЛ.ЛАТЫШСКИХ СТРЕЛКОВ, УГ.УЛ.КРЖИЖАНОВСКОГО",59.928427,30.460956,0,2,bus
18315,18315,"УЛ.КРЖИЖАНОВСКОГО, 3",59.930760,30.464680,0,2,bus
18314,18314,"УЛ.ЛАТЫШСКИХ СТРЕЛКОВ, ШКОЛА",59.927505,30.465361,0,2,bus
18313,18313,"РОССИЙСКИЙ ПР.,УГОЛ УЛ. ЛАТЫШСКИХ СТРЕЛКОВ",59.926338,30.470316,0,2,bus
18317,18317,"УЛ. ЛАТЫШСКИХ СТРЕЛКОВ, УГ.УЛ. КРЖИЖАНОВСКОГО",59.928962,30.461193,0,2,bus
18316,18316,"УЛ. КРЖИЖАНОВСКОГО, Д.5",59.932323,30.470812,0,2,bus
18289,18289,"ОРАНЖЕРЕЙНАЯ УЛ.,7",59.717046,30.405429,0,2,bus
18290,18290,УЛ.САВУШКИНА УГ.ЯХТЕННОЙ УЛ,59.987748,30.215785,0,2,bus
18272,18272,"ЖЕЛЕЗНОВОДСКАЯ УЛ.,14",59.952546,30.254953,0,2,bus
18252,18252,МАЛЫЙ ПР. В.О. ПО 16-17-Й ЛИНИИ В.О.,59.942914,30.261557,0,2,bus
18253,18253,СРЕДНИЙ ПР. В. О. ПО 16-17-Й ЛИНИИ В.О.,59.939110,30.266092,0,2,bus
18251,18251,КАМСКАЯ УЛ.,59.946576,30.257265,0,2,bus
18233,18233,МАЛЫЙ ПР.В.О. ПО 16-17 ЛИНИИ В.О.,59.943681,30.261034,0,2,bus
18232,18232,СРЕДНИЙ ПР.ВО. ПО 16-17 ЛИНИИ В.О.,59.939834,30.265743,0,2,bus
18234,18234,КАМСКАЯ УЛ.,59.946604,30.257601,0,2,bus
18229,18229,УРАЛЬСКАЯ УЛ.,59.952650,30.261985,0,2,bus
18231,18231,"16-17 ЛИНИЯ В.О., УГ. БОЛЬШОГО ПР.В.О.",59.935955,30.270250,0,2,bus
18209,18209,"ЖЕЛЕЗНОВОДСКАЯ УЛ., УГ. ПР.КИМА",59.951812,30.247074,0,2,bus
18210,18210,ЖЕЛЕЗНОВОДСКАЯ УЛ.,59.952403,30.255035,0,2,bus
18193,18193,"УГ. КИРОЧНАЯ УЛ., УГ. ПОТЕМКИНСКОЙ УЛ.",59.944179,30.367724,0,2,bus
18190,18190,"ПОТЕМКИНСКАЯ УЛ., УГ.ШПАЛЕРНАЯ УЛ.",59.948941,30.367158,0,2,bus
18178,18178,ЛЕНИНГРАДСКАЯ УЛ.,59.783641,30.116208,0,2,bus
18179,18179,СТ. ГОРЕЛОВО,59.781450,30.125830,0,2,bus
18176,18176,ПОС. ТОРИКИ,59.780056,30.104363,0,2,bus
18177,18177,"АННИНСКОЕ ШОССЕ, 30",59.783479,30.108182,0,2,bus
18180,18180,"ДАЧНЫЙ, 19",59.841053,30.256176,0,2,bus
18181,18181,"ДАЧНЫЙ, 25",59.838724,30.260746,0,2,bus
16525,16525,ПЕТРОПАВЛОВСКАЯ УЛИЦА,59.965540,30.314830,0,2,tram
16524,16524,НОВОРОССИЙСКАЯ УЛИЦА,59.993683,30.358844,0,2,tram
16527,16527,УЛИЦА СЕВАСТЬЯНОВА,59.875930,30.327710,0,2,tram
16526,16526,ДЕТСКАЯ МУЗЫКАЛЬНАЯ ШКОЛА,59.894070,30.319420,0,2,tram
16521,16521,МОСКОВСКИЙ ПРОСПЕКТ,59.875970,30.321750,0,2,tram
16520,16520,Ж/Д СТАНЦИЯ КУШЕЛЕВКА,59.991040,30.352160,0,2,tram
16523,16523,КОРАБЕЛЬНАЯ УЛИЦА,59.876000,30.254390,0,2,tram
16522,16522,ЗАСТАВСКАЯ УЛИЦА,59.888550,30.319800,0,2,tram
16516,16516,УЛИЦА СЕВАСТЬЯНОВА,59.876060,30.328580,0,2,tram
16519,16519,1-Й МЕДИЦИНСКИЙ ИНСТИТУТ,59.965250,30.320100,0,2,tram
16518,16518,АДМИНИСТРАЦИЯ МОСКОВСКОГО РАЙОНА,59.884570,30.319940,0,2,tram
16513,16513,ПРОСПЕКТ ЮРИЯ ГАГАРИНА,59.876140,30.334850,0,2,tram
16512,16512,ВИТЕБСКИЙ ПРОСПЕКТ,59.877790,30.347120,0,2,tram
16515,16515,УЛИЦА ЗЕНИТЧИКОВ,59.871283,30.256186,0,2,tram
16514,16514,"СТАНЦИЯ МЕТРО ""ЭЛЕКТРОСИЛА""",59.880270,30.320010,0,2,tram
16540,16540,ВЯЗЕМСКИЙ ПЕРЕУЛОК,59.970986,30.301797,0,2,tram
16541,16541,УЛИЦА ВАСИ АЛЕКСЕЕВА,59.878090,30.266800,0,2,tram
16543,16543,ПЕСОЧНАЯ НАБЕРЕЖНАЯ,59.975420,30.299130,0,2,tram
16536,16536,ВОЛКОВСКИЙ ПРОСПЕКТ,59.879550,30.356340,0,2,tram
16538,16538,ЧКАЛОВСКИЙ ПРОСПЕКТ,59.969180,30.304310,0,2,tram
16539,16539,"МЕТРО ""БУХАРЕСТСКАЯ""",59.883580,30.366530,0,2,tram
16532,16532,ТРАМВАЙНЫЙ ПАРК № 1 (высадка),59.896760,30.319280,0,2,tram
16533,16533,ВИТЕБСКИЙ ПРОСПЕКТ,59.877810,30.347890,0,2,tram
16534,16534,КАМЕННООСТРОВСКИЙ ПРОСПЕКТ,59.969403,30.309200,0,2,tram
16528,16528,ПРОСПЕКТ НЕПОКОРЁННЫХ,59.997140,30.364350,0,2,tram
16529,16529,КОМСОМОЛЬСКАЯ ПЛОЩАДЬ,59.877742,30.257278,0,2,tram
16530,16530,ПРОСПЕКТ ЮРИЯ ГАГАРИНА,59.876050,30.335460,0,2,tram
16531,16531,БОЛЬШОЙ ПРОСПЕКТ П.С.,59.967770,30.314360,0,2,tram
16559,16559,БОЛОТНАЯ УЛИЦА,59.999856,30.352667,0,2,tram
16558,16558,УЛИЦА ЛЕНСОВЕТА,59.855120,30.330220,0,2,tram
16557,16557,УЛИЦА ВЕРНОСТИ,59.997730,30.438180,0,2,tram
16556,16556,БАРРИКАДНАЯ УЛИЦА,59.891992,30.262419,0,2,tram
16555,16555,ИНСТИТУТСКИЙ ПРОСПЕКТ,60.000575,30.347625,0,2,tram
16554,16554,ПРОСПЕКТ НАУКИ / УЛИЦА РУСТАВЕЛИ,60.003111,30.437170,0,2,tram
16553,16553,ПРОСПЕКТ ЮРИЯ ГАГАРИНА (посадка),59.855422,30.336086,0,2,tram
16552,16552,ПРОСПЕКТ СТАЧЕК,59.890230,30.272630,0,2,tram
16551,16551,УЛИЦА ОРБЕЛИ,60.001706,30.339703,0,2,tram
16550,16550,"ТИХОРЕЦКИЙ ПРОСПЕКТ, дом 7",60.013147,30.368614,0,2,tram
16549,16549,УЛИЦА ТРЕФОЛЕВА,59.888360,30.276910,0,2,tram
16548,16548,ТРАМВАЙНЫЙ ПАРК № 1 (посадка),59.897461,30.319008,0,2,tram
16547,16547,ПРАЖСКАЯ УЛИЦА,59.881281,30.380272,0,2,trolley
16546,16546,2-Й МУРИНСКИЙ ПРОСПЕКТ,60.003020,30.330550,0,2,tram
16545,16545,КАМЕННООСТРОВСКИЙ ПРОСПЕКТ,59.979530,30.299480,0,2,tram
16544,16544,УЛИЦА ВОЗРОЖДЕНИЯ,59.881730,30.270380,0,2,tram
16574,16574,АДМИНИСТРАЦИЯ МОСКОВСКОГО РАЙОНА,59.884372,30.319750,0,2,tram
16575,16575,ПРОСПЕКТ СТАЧЕК,59.890580,30.270930,0,2,tram
16572,16572,ПРОСПЕКТ НЕПОКОРЁННЫХ,59.991780,30.433910,0,2,tram
16573,16573,БУДАПЕШТСКАЯ УЛИЦА,59.835290,30.400560,0,2,tram
16570,16570,ЗАГРЕБСКИЙ БУЛЬВАР,59.837270,30.408260,0,2,tram
16571,16571,"СТАНЦИЯ МЕТРО ""ПОЛИТЕХНИЧЕСКАЯ""",60.008489,30.369697,0,2,tram
16568,16568,БАРРИКАДНАЯ УЛИЦА,59.891870,30.261760,0,2,tram
16569,16569,ЗАСТАВСКАЯ УЛИЦА,59.888880,30.319489,0,2,tram
16567,16567,"СТАНЦИЯ МЕТРО ""ПЛОЩАДЬ МУЖЕСТВА""",60.000403,30.365625,0,2,tram
16564,16564,ДЕТСКАЯ МУЗЫКАЛЬНАЯ ШКОЛА,59.894150,30.319240,0,2,tram
16565,16565,УЛИЦА ЯРОСЛАВА ГАШЕКА,59.838780,30.412820,0,2,tram
16562,16562,"2-Й МУРИНСКИЙ ПРОСПЕКТ, 51",59.998583,30.361578,0,2,tram
16563,16563,ДУНАЙСКИЙ ПРОСПЕКТ,59.842394,30.409219,0,2,tram
16560,16560,"БУХАРЕСТСКАЯ УЛИЦА,118",59.846680,30.404850,0,2,tram
16561,16561,ОБОРОННАЯ УЛИЦА (конечная),59.892794,30.257514,0,2,tram
16585,16585,ПРОСПЕКТ МЕЧНИКОВА (высадка),59.983890,30.426120,0,2,tram
16584,16584,УЛИЦА МАРШАЛА ГОВОРОВА,59.889100,30.276720,0,2,tram
16587,16587,МАЛАЯ БАЛКАНСКАЯ УЛИЦА (посадка),59.829494,30.421928,0,2,tram
16586,16586,БУХАРЕСТСКАЯ УЛИЦА,59.838180,30.412360,0,2,tram
16589,16589,ПР.СИЗОВА,60.006314,30.272211,0,2,tram
16588,16588,"СТАНЦИЯ МЕТРО ""ПАРК ПОБЕДЫ""",59.865800,30.320530,0,2,tram
16591,16591,ДУНАЙСКИЙ ПРОСПЕКТ,59.841960,30.409920,0,2,tram
16590,16590,ОГОРОДНЫЙ ПЕРЕУЛОК,59.885950,30.274400,0,2,tram
16577,16577,"СТАНЦИЯ МЕТРО ""ЭЛЕКТРОСИЛА""",59.880090,30.319820,0,2,tram
16576,16576,"МЕТРО ""КОМЕНДАНТСКИЙ ПРОСПЕКТ""",60.007070,30.257730,0,2,tram
16579,16579,БЛАГОДАТНАЯ УЛИЦА,59.876210,30.319890,0,2,tram
16578,16578,КУПЧИНСКАЯ УЛИЦА,59.833331,30.392850,0,2,tram
16581,16581,УЛ.МАРШАЛА НОВИКОВА,60.006978,30.267100,0,2,tram
16580,16580,БУДАПЕШТСКАЯ УЛИЦА,59.834950,30.399760,0,2,tram
16583,16583,КУЗНЕЦОВСКАЯ УЛИЦА,59.871910,30.320160,0,2,tram
16582,16582,ЗАГРЕБСКИЙ БУЛЬВАР,59.836960,30.407650,0,2,tram
16600,16600,УЛИЦА ЛЕНСОВЕТА,59.854970,30.329210,0,2,tram
16601,16601,УЛИЦА ОЛЕКО ДУНДИЧА,59.833225,30.418506,0,2,tram
16602,16602,УЛИЦА ВАСИ АЛЕКСЕЕВА,59.879380,30.267790,0,2,tram
16603,16603,АВИАЦИОННАЯ УЛИЦА,59.854890,30.323020,0,2,tram
16604,16604,ПРОСПЕКТ ЮРИЯ ГАГАРИНА (высадка),59.855080,30.336670,0,2,tram
16605,16605,УЛИЦА ТИПАНОВА,59.853769,30.329669,0,2,tram
16606,16606,МАЛАЯ БАЛКАНСКАЯ УЛИЦА (высадка),59.830389,30.421375,0,2,tram
16607,16607,СЕРЕБРИСТЫЙ БУЛЬВАР,60.005153,30.281136,0,2,tram
16592,16592,УЛИЦА ОЛЕКО ДУНДИЧА,59.832867,30.419022,0,2,tram
16593,16593,УЛИЦА ФРУНЗЕ,59.861950,30.320740,0,2,tram
16594,16594,"БУХАРЕСТСКАЯ УЛИЦА, 118",59.846320,30.405500,0,2,tram
16595,16595,УЛИЦА ВОЗРОЖДЕНИЯ,59.881250,30.269640,0,2,tram
16596,16596,БАЙКОНУРСКАЯ УЛ.,60.005731,30.276686,0,2,tram
16598,16598,УЛИЦА ГАСТЕЛЛО,59.858390,30.320950,0,2,tram
16599,16599,УЛИЦА ДИМИТРОВА,59.851120,30.400610,0,2,tram
16619,16619,"УЛИЦА ЛЕНСОВЕТА, 87",59.836072,30.343008,0,2,tram
16618,16618,ПРОСПЕКТ ПРОСВЕЩЕНИЯ,60.040189,30.399040,0,2,tram
16617,16617,УДЕЛЬНЫЙ ПАРК,60.001772,30.307097,0,2,tram
16616,16616,"ПРОСПЕКТ ЮРИЯ ГАГАРИНА, ТЕАТР ""АЛЕКО""",59.839350,30.336860,0,2,tram
16623,16623,"МЕТРО ""ПИОНЕРСКАЯ""",60.003272,30.296122,0,2,tram
16622,16622,УЛИЦА БРЯНЦЕВА,60.038410,30.405560,0,2,tram
16621,16621,УДЕЛЬНЫЙ ПАРК,60.001950,30.306390,0,2,tram
16620,16620,КОРАБЕЛЬНАЯ УЛИЦА,59.876850,30.254330,0,2,tram
16611,16611,УЛИЦА ОРДЖОНИКИДЗЕ,59.844850,30.330178,0,2,tram
16610,16610,"ПРОСПЕКТ ИСПЫТАТЕЛЕЙ, 11",60.003990,30.289990,0,2,tram
16609,16609,АЛТАЙСКАЯ УЛИЦА,59.849740,30.329870,0,2,tram
16608,16608,УЛИЦА НОВОСТРОЕК,59.876350,30.264650,0,2,tram
16615,16615,ТИМУРОВСКАЯ УЛИЦА,60.044481,30.402608,0,2,tram
16614,16614,КОМСОМОЛЬСКАЯ ПЛОЩАДЬ,59.877233,30.259586,0,2,tram
16613,16613,"МЕТРО ""ПИОНЕРСКАЯ""",60.003089,30.296991,0,2,tram
16612,16612,СУЗДАЛЬСКИЙ ПРОСПЕКТ,60.046370,30.406490,0,2,tram
16634,16634,УЛИЦА РУСТАВЕЛИ,60.033317,30.430614,0,2,tram
16635,16635,БАЙКОНУРСКАЯ УЛ.,60.005970,30.275820,0,2,tram
16632,16632,СЕРЕБРИСТЫЙ БУЛЬВАР,60.005097,30.282081,0,2,tram
16633,16633,ТРАМВАЙНЫЙ ПРОСПЕКТ,59.858710,30.252690,0,2,tram
16638,16638,ПР.СИЗОВА,60.006520,30.271250,0,2,tram
16639,16639,ЛУЖСКАЯ УЛИЦА,60.026910,30.432310,0,2,tram
16636,16636,Ж/Д ПЛАТФОРМА МУРИНО,60.032469,30.432600,0,2,tram
16637,16637,СОЛОМАХИНСКИЙ ПРОЕЗД,59.854280,30.242770,0,2,tram
16626,16626,УЛИЦА УШИНСКОГО,60.037303,30.411061,0,2,tram
16627,16627,ПР.ИСПЫТАТЕЛЕЙ Д.11,60.004025,30.290319,0,2,tram
16624,16624,УЛИЦА ЗЕНИТЧИКОВ,59.871636,30.255947,0,2,tram
16625,16625,"СТАНЦИЯ МЕТРО ""ЗВЁЗДНАЯ""",59.833678,30.347461,0,2,tram
16630,16630,"МЕТРО ""АВТОВО""",59.868590,30.256890,0,2,tram
16631,16631,"ПРОСПЕКТ ПРОСВЕЩЕНИЯ, 106",60.034139,30.426594,0,2,tram
16628,16628,"МЕТРО ""ГРАЖДАНСКИЙ ПРОСПЕКТ""",60.035611,30.419361,0,2,tram
16629,16629,МЯСОКОМБИНАТ,59.829447,30.347889,0,2,tram
16388,16388,ПРОСПЕКТ СОЛИДАРНОСТИ,59.924050,30.489090,0,2,tram
16390,16390,КОВАЛЁВСКАЯ УЛИЦА,59.976770,30.505940,0,2,tram
16391,16391,"БУХАРЕСТСКАЯ УЛИЦА, ДОМ 1",59.890722,30.360156,0,2,tram
16384,16384,УЛИЦА ПОКРЫШЕВА,59.983930,30.264810,0,2,tram
16385,16385,"МЕТРО ""ВОЛКОВСКАЯ""",59.897250,30.354030,0,2,tram
16386,16386,УНИВЕРСАМ,59.922850,30.483910,0,2,tram
16387,16387,ЛЕСОПАРКОВАЯ УЛИЦА,59.968856,30.503372,0,2,tram
16396,16396,РЕКА ОККЕРВИЛЬ (конечная),59.908878,30.494672,0,2,tram
16397,16397,"МЕТРО ""БУХАРЕСТСКАЯ""",59.884167,30.366828,0,2,tram
16398,16398,УЛИЦА ПОДВОЙСКОГО,59.917478,30.496103,0,2,tram
16399,16399,УНИВЕРСИТЕТ ПРОФСОЮЗОВ,59.878917,30.372162,0,2,tram
16392,16392,ТОРГОВЫЙ ЦЕНТР,59.921417,30.492269,0,2,tram
16394,16394,УЛИЦА ПОДВОЙСКОГО,59.917950,30.495514,0,2,tram
16395,16395,УНИВЕРСИТЕТ КИНО И ТЕЛЕВИДЕНИЯ,59.888039,30.362881,0,2,tram
16405,16405,УНИВЕРСАМ,59.923090,30.484240,0,2,tram
16404,16404,ПРОСПЕКТ МЕЧНИКОВА,59.983450,30.427381,0,2,tram
16407,16407,"МЕТРО ""МЕЖДУНАРОДНАЯ""",59.871750,30.379420,0,2,tram
16406,16406,2-Й МУРИНСКИЙ ПРОСПЕКТ,59.998731,30.361017,0,2,tram
16401,16401,УЛИЦА  КОЛЛОНТАЙ,59.923933,30.490061,0,2,tram
16400,16400,ТОРГОВЫЙ ЦЕНТР,59.921378,30.492453,0,2,tram
16403,16403,ТИХОРЕЦКИЙ ПРОСПЕКТ,60.011960,30.367500,0,2,tram
16402,16402,МАГАЗИН «ГРАНАТ»,59.874878,30.376269,0,2,tram
16413,16413,ИСКРОВСКИЙ  ПРОСПЕКТ,59.916670,30.457040,0,2,tram
16412,16412,УЛИЦА ТУРКУ,59.868350,30.382870,0,2,tram
16415,16415,ДАЛЬНЕВОСТОЧНЫЙ ПРОСПЕКТ,59.912630,30.439900,0,2,tram
16414,16414,ИНСТИТУТСКИЙ ПРОСПЕКТ,60.000544,30.348289,0,2,tram
16408,16408,ТОВАРИЩЕСКИЙ ПРОСПЕКТ,59.921890,30.479240,0,2,tram
16411,16411,БОЛОТНАЯ УЛИЦА,59.999825,30.353342,0,2,tram
16410,16410,"СТ. МЕТРО ""ПРОСПЕКТ БОЛЬШЕВИКОВ""",59.919480,30.468870,0,2,tram
16422,16422,ПРОСПЕКТ СЛАВЫ,59.859710,30.391640,0,2,tram
16420,16420,СВЕТЛАНОВСКАЯ ПЛОЩАДЬ,60.003210,30.329990,0,2,tram
16421,16421,КАМЕННООСТРОВСКИЙ ПРОСПЕКТ,59.980214,30.299164,0,2,tram
16419,16419,УНИВЕРСАМ,59.862450,30.388860,0,2,tram
16416,16416,МУЗЫКАЛЬНАЯ ШКОЛА,59.864710,30.386540,0,2,tram
16417,16417,УЛИЦА ОРБЕЛИ,60.001608,30.340844,0,2,tram
16430,16430,ПРОСПЕКТ МЕЧНИКОВА,59.984220,30.426750,0,2,tram
16431,16431,НАБЕРЕЖНАЯ ОБВОДНОГО КАНАЛА,59.910108,30.275697,0,2,tram
16429,16429,УЛИЦА ДИМИТРОВА,59.852020,30.399420,0,2,tram
16426,16426,УЛИЦА ПРОФЕССОРА ПОПОВА,59.971560,30.301780,0,2,tram
16427,16427,РИЖСКИЙ ПРОСПЕКТ,59.914136,30.277992,0,2,tram
16424,16424,ВЯЗЕМСКИЙ ПЕРЕУЛОК,59.975170,30.299200,0,2,tram
16425,16425,АЛЬПИЙСКИЙ ПЕРЕУЛОК,59.853810,30.397700,0,2,tram
16439,16439,КУПЧИНСКАЯ УЛИЦА,59.846519,30.379642,0,2,tram
16438,16438,КАМЕННООСТРОВСКИЙ ПРОСПЕКТ,59.969370,30.307130,0,2,tram
16436,16436,ПРОСПЕКТ НЕПОКОРЁННЫХ,59.991260,30.433720,0,2,tram
16434,16434,ЛИФЛЯНДСКАЯ УЛИЦА,59.908969,30.264817,0,2,tram
16433,16433,БУДАПЕШТСКАЯ УЛИЦА,59.848486,30.387294,0,2,tram
16432,16432,ЧКАЛОВСКИЙ ПРОСПЕКТ,59.969339,30.303333,0,2,tram
16447,16447,ПРОМЫШЛЕННАЯ УЛИЦА,59.897661,30.253706,0,2,tram
16445,16445,УЛИЦА ЛЬВА ТОЛСТОГО,59.965740,30.314480,0,2,tram
16444,16444,"ПАРК ""ЕКАТЕРИНГОФ""",59.902394,30.259167,0,2,tram
16443,16443,ПЛОВДИВСКАЯ УЛИЦА,59.841475,30.383897,0,2,tram
16441,16441,БОЛЬШОЙ ПРОСПЕКТ П.С.,59.967800,30.313580,0,2,tram
16440,16440,"КОМБИНАТ ""ЗВЕЗДА""",59.907131,30.262669,0,2,tram
16448,16448,1-Й МЕДИЦИНСКИЙ ИНСТИТУТ,59.965261,30.318858,0,2,tram
16449,16449,ДУНАЙСКИЙ ПРОСПЕКТ,59.837117,30.388319,0,2,tram
16450,16450,"СТАНЦИЯ МЕТРО ""ЗВЁЗДНАЯ""",59.833350,30.348350,0,2,tram
16452,16452,УЛИЦА ЯРОСЛАВА ГАШЕКА,59.833397,30.392092,0,2,tram
16454,16454,БОЛЬШАЯ МОНЕТНАЯ УЛИЦА,59.963667,30.327103,0,2,tram
16455,16455,УЛИЦА ВЕРНОСТИ,59.998170,30.438350,0,2,tram
16456,16456,УЛИЦА ТРЕФОЛЕВА,59.894042,30.251119,0,2,tram
16457,16457,"УЛИЦА ЛЕНСОВЕТА, 87",59.835878,30.343553,0,2,tram
16458,16458,ОБОРОННАЯ УЛИЦА,59.892400,30.255220,0,2,tram
16461,16461,ПРОСПЕКТ НАУКИ,60.003347,30.437558,0,2,tram
16462,16462,МАЛАЯ БАЛКАНСКАЯ УЛИЦА,59.831020,30.383900,0,2,tram
16465,16465,"ПЕТЕРГОФСКОЕ ШОССЕ, 5",59.845894,30.204044,0,2,tram
16464,16464,"ПРОСПЕКТ ЮРИЯ ГАГАРИНА, ТЕАТР ""АЛЕКО""",59.838480,30.338790,0,2,tram
16467,16467,УЛИЦА ОРДЖОНИКИДЗЕ,59.843930,30.330430,0,2,tram
16466,16466,ТИХОРЕЦКИЙ ПРОСПЕКТ,60.016580,30.368440,0,2,tram
16469,16469,УЛИЦА КУЙБЫШЕВА,59.957850,30.333070,0,2,tram
16468,16468,ОБОРОННАЯ УЛИЦА,59.892606,30.254950,0,2,tram
16471,16471,УЛИЦА КАЛИНИНА,59.894281,30.250733,0,2,tram
16470,16470,"ТИХОРЕЦКИЙ ПРОСПЕКТ, дом 6",60.011930,30.368730,0,2,tram
16472,16472,АЛТАЙСКАЯ УЛИЦА,59.849200,30.330130,0,2,tram
16475,16475,ПРОМЫШЛЕННАЯ УЛИЦА,59.897030,30.253240,0,2,tram
16474,16474,ПРОСПЕКТ МАРШАЛА ЖУКОВА,59.845720,30.210820,0,2,tram
16476,16476,"СТАНЦИЯ МЕТРО ""ПОЛИТЕХНИЧЕСКАЯ""",60.008750,30.369480,0,2,tram
16479,16479,"ПРОСПЕКТ СТАЧЕК, 111",59.846960,30.220900,0,2,tram
16478,16478,"ПАРК ""ЕКАТЕРИНГОФ""",59.902090,30.259100,0,2,tram
16482,16482,АВИАЦИОННАЯ УЛИЦА,59.854840,30.329810,0,2,tram
16480,16480,НАБЕРЕЖНАЯ ОБВОДНОГО КАНАЛА,59.908333,30.263697,0,2,tram
16486,16486,УЛИЦА ЛЁНИ ГОЛИКОВА,59.848370,30.227430,0,2,tram
16484,16484,МОСКОВСКИЙ ПРОСПЕКТ,59.854990,30.322360,0,2,tram
16485,16485,"СТАНЦИЯ МЕТРО ""ПЛОЩАДЬ МУЖЕСТВА""",60.000672,30.365600,0,2,tram
16490,16490,КРОНШТАДТСКАЯ ПЛОЩАДЬ,59.851120,30.235060,0,2,tram
16491,16491,"ПРАЖСКАЯ УЛИЦА, 14",59.877591,30.384717,0,2,trolley
16488,16488,БУМАЖНАЯ УЛИЦА,59.908880,30.265990,0,2,tram
16489,16489,УЛИЦА ГАСТЕЛЛО,59.858020,30.321180,0,2,tram
16494,16494,"СТАРО-ПЕТЕРГОФСКИЙ ПРОСПЕКТ, 12",59.910136,30.275825,0,2,tram
16495,16495,СОЛОМАХИНСКИЙ ПРОЕЗД,59.854120,30.242720,0,2,tram
16492,16492,УЛИЦА ФРУНЗЕ,59.861470,30.321000,0,2,tram
16499,16499,ТРАМВАЙНЫЙ ПРОСПЕКТ,59.858760,30.253120,0,2,tram
16497,16497,РИЖСКИЙ ПРОСПЕКТ,59.912840,30.277400,0,2,tram
16496,16496,ПРОСПЕКТ НЕПОКОРЁННЫХ,59.996900,30.363940,0,2,tram
16502,16502,"СТАНЦИЯ МЕТРО ""ПАРК ПОБЕДЫ""",59.865990,30.320710,0,2,tram
16501,16501,НАБЕРЕЖНАЯ РЕКИ ФОНТАНКИ,59.915570,30.279010,0,2,tram
16500,16500,НОВОРОССИЙСКАЯ УЛИЦА,59.994160,30.359680,0,2,tram
16507,16507,ВОЛКОВСКИЙ ПРОСПЕКТ,59.879870,30.357170,0,2,tram
16506,16506,КУЗНЕЦОВСКАЯ УЛИЦА,59.871470,30.320420,0,2,tram
16504,16504,САДОВАЯ УЛИЦА,59.917000,30.283080,0,2,tram
16511,16511,"МЕТРО ""АВТОВО""",59.868740,30.257030,0,2,tram
16510,16510,БЛАГОДАТНАЯ УЛИЦА,59.875530,30.320180,0,2,tram
16509,16509,ТРАМВАЙНЫЙ ПАРК № 3,59.960480,30.331110,0,2,tram
16508,16508,Ж/Д СТАНЦИЯ КУШЕЛЕВКА,59.991210,30.352340,0,2,tram
1375,1375,БЕСТУЖЕВСКАЯ УЛ. УГ. ЗАМШИНОЙ УЛ.,59.983058,30.408567,0,2,bus
1373,1373,БЕСТУЖЕВСКАЯ УЛ. 32,59.982120,30.413049,0,2,bus
16796,16796,"ТИХОРЕЦКИЙ ПРОСПЕКТ, дом 7",60.013093,30.368400,0,2,trolley
1371,1371,БЕЛОРУССКАЯ УЛ. ПО ХАСАНСКОЙ УЛ.,59.935430,30.498669,0,2,bus
16794,16794,"СТАНЦИЯ МЕТРО ""ПЛОЩАДЬ МУЖЕСТВА""",60.000600,30.365780,0,2,trolley
1370,1370,БЕЛООСТРОВСКАЯ УЛ.,59.988141,30.310626,0,2,bus
1369,1369,БЕЛГРАДСКАЯ УЛ. УГ. УЛ. ТУРКУ,59.867379,30.359464,0,2,bus
16793,16793,УЛИЦА НАХИМОВА,59.943253,30.231303,0,2,trolley
1367,1367,БЕЛГРАДСКАЯ УЛ. 6,59.872152,30.357090,0,2,bus
1366,1366,БЕЛГРАДСКАЯ УЛ.,59.854664,30.371042,0,2,bus
1365,1365,БЕЗЫМЯННАЯ УЛ.,59.818998,30.179281,0,2,bus
1364,1364,"БЕГУНИЦЫ,2",59.584006,29.308552,0,2,bus
1363,1363,"БЕГУНИЦЫ,1",59.586991,29.323996,0,2,bus
1362,1362,БАССЕЙНАЯ УЛ. УГ. ПР. КОСМОНАВТОВ,59.864581,30.346662,0,2,bus
16787,16787,УЛИЦА НАХИМОВА,59.942497,30.229828,0,2,trolley
1361,1361,БАЛТИЙСКИЙ ВОКЗАЛ,59.907937,30.299986,0,2,bus
16784,16784,БОЛЬШОЙ ПРОСПЕКТ В.О. / 1-Я И КАДЕТСКАЯ ЛИНИИ,59.940683,30.291394,0,2,trolley
1360,1360,БАЙКОНУРСКАЯ УЛ.,60.017181,30.280463,0,2,bus
16785,16785,ДВОРЦОВАЯ ПЛОЩАДЬ,59.939017,30.311031,0,2,trolley
16783,16783,ПЛОЩАДЬ МУЖЕСТВА,59.999775,30.362989,0,2,trolley
1359,1359,БОЛЬШОЙ СМОЛЕНСКИЙ ПР.,59.898891,30.419425,0,2,bus
16782,16782,"СТАНЦИЯ МЕТРО ""ПЛОЩАДЬ МУЖЕСТВА""",60.000423,30.365372,0,2,trolley
16781,16781,УЛИЦА ВАТУТИНА,59.963810,30.380130,0,2,trolley
1357,1357,Б. КОНЮШЕННАЯ УЛ.,59.936096,30.321498,0,2,bus
16780,16780,УЛИЦА ЖУКОВА,59.968120,30.384570,0,2,trolley
16777,16777,УЛИЦА КОРАБЛЕСТРОИТЕЛЕЙ (посадка),59.955700,30.234700,0,2,trolley
1350,1350,АПРЕЛЬСКАЯ УЛ.,59.964893,30.418367,0,2,bus
16775,16775,5-Я СОВЕТСКАЯ УЛИЦА,59.934010,30.370130,0,2,trolley
1351,1351,АРСЕНАЛЬНАЯ УЛ.,59.955535,30.370940,0,2,bus
1348,1348,АНТАШИ,59.635062,29.560358,0,2,bus
16773,16773,"МЕТРО ""НЕВСКИЙ ПРОСПЕКТ""",59.935100,30.329680,0,2,trolley
1349,1349,АПРАКСИН ПЕР.,59.929529,30.324698,0,2,bus
16772,16772,ПРОСПЕКТ НЕПОКОРЁННЫХ,59.996431,30.379139,0,2,trolley
16771,16771,УЛИЦА КРАСНОГО ТЕКСТИЛЬЩИКА,59.942994,30.394908,0,2,trolley
1347,1347,АННИНСКОЕ ШОССЕ,59.780363,30.133423,0,2,bus
16770,16770,УЛИЦА ПОМЯЛОВСКОГО,59.936200,30.408120,0,2,trolley
16769,16769,ПРОСПЕКТ КУЛЬТУРЫ,60.044990,30.373260,0,2,tram
1344,1344,АЛЕКСАНДРИЯ,59.875100,29.943960,0,2,bus
16768,16768,УЛИЦА РУДНЕВА,60.046430,30.366000,0,2,tram
1345,1345,АЛЛЕЯ ГОМОНТОВО,59.575605,29.281928,0,2,bus
1405,1405,АЛЬПИЙСКИЙ ПЕР.,59.852458,30.383098,0,2,bus
16828,16828,ИНСТИТУТ ИМ.БЕХТЕРЕВА,59.903444,30.402583,0,2,trolley
1404,1404,БУДАПЕШТСКАЯ УЛ. 33,59.860155,30.376631,0,2,bus
1407,1407,БУДАПЕШТСКАЯ УЛ. УГ. М. БАЛКАНСКОЙ УЛ.,59.826330,30.409360,0,2,bus
1406,1406,БУДАПЕШТСКАЯ УЛ. 5,59.872564,30.367194,0,2,bus
1401,1401,БУДАПЕШТСКАЯ УЛ.,59.856207,30.380799,0,2,bus
16824,16824,АПРЕЛЬСКАЯ УЛИЦА,59.964983,30.419667,0,2,trolley
1400,1400,БУДАПЕШТСКАЯ УЛ.,59.829820,30.406470,0,2,bus
16825,16825,СУВОРОВСКИЙ ПРОСПЕКТ,59.942500,30.380300,0,2,trolley
1403,1403,БУДАПЕШТСКАЯ УЛ. 19,59.864587,30.373260,0,2,bus
1402,1402,БУДАПЕШТСКАЯ УЛ.,59.867600,30.370010,0,2,bus
1397,1397,"БОТАНИЧЕСКАЯ УЛ. 17 [210, 356А-ШК, 358, 359]",59.875270,29.837210,0,2,bus
1399,1399,БРЕСТСКИЙ БУЛЬВАР,59.850389,30.193127,0,2,bus
1393,1393,"БОЛЬШОЙ САМПСОНИЕВСКИЙ ПР.,70",59.980961,30.336536,0,2,bus
1392,1392,БОЛЬШОЙ САМПСОНИЕВСКИЙ ПР.,59.959039,30.346867,0,2,bus
1395,1395,БОРОВАЯ УЛ.,59.743994,30.097438,0,2,bus
1394,1394,БОЛЬШОЙ СМОЛЕНСКИЙ ПР.,59.896646,30.409450,0,2,bus
1388,1388,БОЛЬШЕОХТИНСКОЕ КЛАДБИЩЕ,59.953109,30.440669,0,2,bus
16813,16813,КИРОЧНАЯ УЛИЦА,59.943910,30.350490,0,2,trolley
16815,16815,МОСКОВСКИЙ ПРОСПЕКТ,59.916000,30.316070,0,2,trolley
1391,1391,БОЛЬШОЙ ПР. П.С.,59.961902,30.304872,0,2,bus
1384,1384,БОЛЬШАЯ ПОРОХОВСКАЯ УЛ.,59.952179,30.436631,0,2,bus
1385,1385,БОЛЬШАЯ ПОРОХОВСКАЯ УЛ.,59.952824,30.421673,0,2,bus
1380,1380,"БОГАТЫРСКИЙ ПР.,УГ. КОЛОМЯЖСКОГО ПР.",60.000617,30.296731,0,2,bus
1381,1381,БОЛЬНИЦА,59.878580,29.919980,0,2,bus
1383,1383,БОЛЬШАЯ МОНЕТНАЯ УЛ.,59.960940,30.316400,0,2,bus
16806,16806,МИНЕРАЛЬНАЯ УЛИЦА / АРСЕНАЛЬНАЯ УЛИЦА,59.964630,30.367500,0,2,trolley
1376,1376,БИОЛОГИЧЕСКИЙ ИНСТИТУТ,59.895990,29.843900,0,2,bus
16801,16801,"СВЕТЛАНОВСКИЙ ПРОСПЕКТ, 75",60.022600,30.377080,0,2,trolley
1377,1377,"БКЗ ""ОКТЯБРЬСКИЙ""",59.936893,30.364609,0,2,bus
1378,1378,БОБЫЛЬСКАЯ ДОРОГА,59.882800,29.854540,0,2,bus
16802,16802,"СВЕТЛАНОВСКИЙ ПРОСПЕКТ, 40",60.022500,30.376317,0,2,trolley
16858,16858,УЛИЦА РУСТАВЕЛИ,60.002250,30.436267,0,2,trolley
16859,16859,УЛИЦА ВЕРНОСТИ,59.997300,30.437430,0,2,trolley
16856,16856,ПРОСПЕКТ НАУКИ,60.002800,30.436633,0,2,trolley
1311,1311,4-Й ВЕРХНИЙ ПЕРЕУЛОК,60.071331,30.350000,0,2,bus
16863,16863,Ж/Д СТАНЦИЯ ПИСКАРЁВКА,59.984833,30.425850,0,2,trolley
16860,16860,"ПИСКАРЁВСКИЙ ПРОСПЕКТ, 50",59.989490,30.430670,0,2,trolley
1308,1308,"3-Й ВЕРХНИЙ ПЕР.,УГ. ДОМОСТРОИТЕЛЬНОЙ УЛ.",60.061784,30.365612,0,2,bus
1299,1299,28 КМ,59.682536,29.894088,0,2,bus
16850,16850,УЛИЦА МАРШАЛА ТУХАЧЕВСКОГО,59.973640,30.414472,0,2,trolley
16851,16851,ПРОСПЕКТ МАРШАЛА БЛЮХЕРА,59.976700,30.417750,0,2,trolley
1297,1297,26 КМ,60.141154,30.208599,0,2,bus
16848,16848,АПРЕЛЬСКАЯ УЛИЦА / ПРОСПЕКТ МЕТАЛЛИСТОВ,59.964983,30.418267,0,2,trolley
16849,16849,ПИСКАРЁВСКИЙ ПРОСПЕКТ,59.968700,30.411240,0,2,trolley
1303,1303,31 КМ,60.171170,30.179530,0,2,bus
16854,16854,ПРОСПЕКТ НЕПОКОРЁННЫХ,59.992267,30.434220,0,2,trolley
1302,1302,30 КМ,60.164848,30.183689,0,2,bus
16855,16855,УЛИЦА ВЕРНОСТИ,59.997833,30.437860,0,2,trolley
1301,1301,ПОЛОЦКАЯ УЛ.,59.733624,30.470255,0,2,bus
16852,16852,БЕСТУЖЕВСКАЯ УЛИЦА,59.980560,30.421920,0,2,trolley
1300,1300,29 КМ,60.155272,30.191029,0,2,bus
16853,16853,Ж/Д СТАНЦИЯ ПИСКАРЁВКА,59.985283,30.426967,0,2,trolley
1290,1290,"1-Я И КАДЕТСКАЯ ЛИНИЯ,УГ. СРЕДНЕГО ПР.",59.944534,30.287010,0,2,bus
1291,1291,1-Я КРАСНОАРМЕЙСКАЯ УЛ.,59.915962,30.310437,0,2,bus
16842,16842,2-Я КРАСНОАРМЕЙСКАЯ УЛИЦА,59.915720,30.317950,0,2,trolley
16840,16840,УЛИЦА МАРШАЛА ТУХАЧЕВСКОГО (посадки нет),59.969280,30.420890,0,2,trolley
1294,1294,22-23 ЛИНИИ,59.937344,30.259117,0,2,bus
1295,1295,25 КМ,60.123918,30.230096,0,2,bus
1292,1292,ШУШАРСКАЯ ДОРОГА,59.767966,30.348291,0,2,bus
1293,1293,21 КМ,59.883362,30.680235,0,2,bus
1282,1282,10 КМ,59.773368,30.125112,0,2,bus
16835,16835,ПИСКАРЁВСКИЙ ПРОСПЕКТ,59.968900,30.408730,0,2,trolley
1286,1286,16 И 17 ЛИНИИ,59.935551,30.271146,0,2,bus
1287,1287,18-19 ЛИНИИ,59.938795,30.264141,0,2,bus
1285,1285,12-13 ЛИНИИ (ПО СРЕДНЕМУ ПР. В.О.),59.941117,30.271756,0,2,bus
1337,1337,АВИАЦИОННАЯ УЛ.,59.853778,30.321648,0,2,bus
16888,16888,"ЛЕНИНСКИЙ ПРОСПЕКТ, 156",59.852064,30.298272,0,2,trolley
1336,1336,"АВИАГОРОДОК, АКАДЕМИЯ ",59.817222,30.293778,0,2,bus
16889,16889,Ж/Д ПЛАТФОРМА ЛЕНИНСКИЙ ПРОСПЕКТ,59.852069,30.287194,0,2,trolley
1339,1339,АВТОБУСНОЕ ПРЕДПРИЯТИЕ,59.833808,30.311012,0,2,bus
1338,1338,АВИАЦИОННАЯ УЛ.,59.752308,30.105127,0,2,bus
16891,16891,ПРОСПЕКТ ВЕТЕРАНОВ,59.835333,30.128181,0,2,trolley
1341,1341,АВТОВСКАЯ УЛ.,59.869848,30.270800,0,2,bus
16892,16892,ПРОСПЕКТ НАРОДНОГО ОПОЛЧЕНИЯ,59.851981,30.279350,0,2,trolley
1340,1340,АВТОВОКЗАЛ,59.913775,30.357836,0,2,bus
16893,16893,"СТАНЦИЯ МЕТРО ""ЛЕНИНСКИЙ ПРОСПЕКТ""",59.852000,30.265420,0,2,trolley
1343,1343,АЛАРЧИН МОСТ,59.920725,30.286272,0,2,bus
16894,16894,ЛЕНИНСКИЙ ПРОСПЕКТ / УЛИЦА ЗИНЫ ПОРТНОВОЙ,59.851203,30.256114,0,2,trolley
1342,1342,АГРОФИЗИЧЕСКИЙ ИНСТИТУТ,59.999551,30.384300,0,2,bus
16895,16895,ОРДИНАРНАЯ УЛИЦА / БОЛЬШОЙ ПРОСПЕКТ П.С.,59.964114,30.309211,0,2,trolley
1329,1329,8 И 9 ЛИНИЯ ПО БОЛЬШОМУ ПР.,59.939111,30.280002,0,2,bus
16880,16880,УЛИЦА ЧАЙКОВСКОГО,59.947225,30.349000,0,2,trolley
1328,1328,8 И 9 ЛИНИИ,59.938568,30.281345,0,2,bus
16881,16881,АДМИНИСТРАЦИЯ МОСКОВСКОГО РАЙОНА,59.885210,30.319311,0,2,trolley
16882,16882,УЛИЦА УТОЧКИНА,60.012700,30.263330,0,2,trolley
16883,16883,Ж/Д ПЛАТФОРМА СОРТИРОВОЧНАЯ (посадки нет),59.866028,30.422889,0,2,trolley
1333,1333,"СТ. МЕТРО ""СТАРАЯ ДЕРЕВНЯ""",59.989375,30.255925,0,2,bus
16884,16884,"ГРАЖДАНСКИЙ ПРОСПЕКТ, 90",60.016820,30.401340,0,2,trolley
1335,1335,АВАНГАРДНАЯ УЛ.,59.832943,30.183512,0,2,bus
16886,16886,СУВОРОВСКИЙ ПРОСПЕКТ,59.930190,30.367360,0,2,trolley
1334,1334,"АБРАЗИВНЫЙ ЗАВОД ""ИЛЬИЧ""",59.986220,30.323660,0,2,bus
16873,16873,УЛИЦА ЛЁНИ ГОЛИКОВА,59.840290,30.239040,0,2,trolley
1321,1321,"5-Й ПРЕДПОРТОВЫЙ ПРОЕЗД,4",59.838108,30.310769,0,2,bus
16872,16872,УЛИЦА ЛЁНИ ГОЛИКОВА,59.839950,30.237600,0,2,trolley
1322,1322,"5-Й ПРЕДПОРТОВЫЙ ПРОЕЗД,УГ. УЛ. КОСТЮШКО",59.841231,30.309885,0,2,bus
16875,16875,УЛИЦА КОСТЮШКО (посадки нет),59.841810,30.308910,0,2,trolley
1323,1323,5-Я КРАСНОАРМЕЙСКАЯ УЛ.,59.912521,30.307688,0,2,bus
1324,1324,6 КМ,59.748860,30.536700,0,2,bus
16877,16877,"МЕТРО ""КОМЕНДАНТСКИЙ ПРОСПЕКТ""",60.008590,30.258940,0,2,trolley
1326,1326,6-Й ЛЕСОПИЛЬНЫЙ ЗАВОД,59.829197,30.540942,0,2,bus
1312,1312,5 КМ,59.747530,30.511096,0,2,bus
16865,16865,ПРОСПЕКТ МАРШАЛА БЛЮХЕРА,59.974610,30.414900,0,2,trolley
16864,16864,БЕСТУЖЕВСКАЯ УЛИЦА,59.979883,30.420500,0,2,trolley
16867,16867,АПРЕЛЬСКАЯ УЛИЦА / ПРОСПЕКТ МЕТАЛЛИСТОВ,59.964167,30.419317,0,2,trolley
16866,16866,ПРОСПЕКТ МЕТАЛЛИСТОВ,59.968150,30.411450,0,2,trolley
16869,16869,УЛИЦА ВОССТАНИЯ,59.943800,30.362558,0,2,trolley
16870,16870,КАЗАНСКАЯ УЛИЦА,59.931883,30.321106,0,2,trolley
16663,16663,ПРОСПЕКТ ЛУНАЧАРСКОГО,60.022150,30.432760,0,2,tram
1494,1494,"ДОРОГА В ПОС.""КРАСНАЯ ЗВЕЗДА""",59.800687,30.638291,0,2,bus
16662,16662,ПРОСПЕКТ МАРШАЛА ЖУКОВА,59.859680,30.233870,0,2,tram
1495,1495,ДОРОГА К ШКОЛЕ,59.807054,30.619817,0,2,bus
16661,16661,ПЕТЕРГОФСКОЕ ШОССЕ,59.845822,30.210261,0,2,tram
1492,1492,"ДОРОГА В ДЕР.""ТРУДОВИК""",59.659933,29.751406,0,2,bus
16660,16660,"УЛИЦА МАРШАЛА КАЗАКОВА, 10",59.859630,30.240960,0,2,tram
1493,1493,ДОРОГА В НЕГОДИЦЫ,59.560253,29.224218,0,2,bus
16659,16659,"ВЕЩЕВОЙ РЫНОК ""ГРАЖДАНСКИЙ""",60.017700,30.433150,0,2,tram
1490,1490,ДОРОГА В БУЯНИЦЫ,59.559478,29.196937,0,2,bus
16658,16658,УНИВЕРСАМ,59.859600,30.247080,0,2,tram
1491,1491,"ДОРОГА В ДЕР. ""РЫЖИКИ""",59.904783,30.671059,0,2,bus
16657,16657,УЛИЦА КАРПИНСКОГО,60.012172,30.434447,0,2,tram
1488,1488,ДОЛГООЗЕРНАЯ УЛ.,60.017280,30.248619,0,2,bus
16656,16656,КРОНШТАДТСКАЯ УЛИЦА,59.876247,30.253794,0,2,tram
1489,1489,ДОМ ВЕТЕРАНОВ,60.019027,30.303798,0,2,bus
16671,16671,ШКОЛА,59.859856,30.221664,0,2,tram
1502,1502,ДОРОГА НА КРАСНЫЕ ЗОРИ,59.861850,29.991000,0,2,bus
16670,16670,"ПРОСПЕКТ ПРОСВЕЩЕНИЯ, Ж/Д ПЛАТФ. РУЧЬИ",60.032739,30.432817,0,2,tram
1503,1503,"ДОРОГА НА П/ФЕРМУ ""ЛАГОЛОВО""",59.711270,30.020960,0,2,bus
16669,16669,ПРОСПЕКТ МАРШАЛА ЖУКОВА,59.859560,30.234580,0,2,tram
1500,1500,ДОРОГА НА КЕЛОЗИ,59.669206,29.823261,0,2,bus
16668,16668,ПЕТЕРГОФСКОЕ ШОССЕ,59.845083,30.210681,0,2,tram
1501,1501,ДОРОГА НА КИПЕНСКУЮ П/ФАБРИКУ,59.669963,29.818530,0,2,bus
16667,16667,"УЛИЦА МАРШАЛА КАЗАКОВА, 22",59.859650,30.227650,0,2,tram
16666,16666,"ПЕТЕРГОФСКОЕ ШОССЕ, 5",59.845947,30.204339,0,2,tram
16665,16665,ЛУЖСКАЯ УЛИЦА,60.026810,30.432420,0,2,tram
1496,1496,ДОРОГА НА ЕЛИЗАВЕТИНКУ,60.181693,30.132175,0,2,bus
16664,16664,"УЛИЦА МАРШАЛА КАЗАКОВА, 22",59.859750,30.228750,0,2,tram
1497,1497,1-Й БАДАЕВСКИЙ ПРОЕЗД,59.798750,30.404180,0,2,bus
16646,16646,"ЗАВОД ""СЕВЕРНАЯ ВЕРФЬ""",59.875514,30.243894,0,2,tram
1479,1479,"ДЕР.НОВОСАРАТОВКА,166",59.842604,30.527761,0,2,bus
16647,16647,ПР.АВИАКОНСТРУКТОРОВ,60.008350,30.249170,0,2,tram
1478,1478,ДЕГТЯРНАЯ УЛ.,59.936160,30.375520,0,2,bus
16644,16644,"МЕТРО ""КОМЕНДАНТСКИЙ ПРОСПЕКТ""",60.007360,30.257090,0,2,tram
1477,1477,ДВОРЦОВАЯ НАБ.,59.938765,30.311331,0,2,bus
16645,16645,УЛИЦА ЛЁНИ ГОЛИКОВА,59.848600,30.227650,0,2,tram
1476,1476,ДВОРЕЦ ТВОРЧЕСТВА ЮНЫХ,59.933586,30.339276,0,2,bus
16642,16642,ПРОСПЕКТ ЛУНАЧАРСКОГО,60.022190,30.432630,0,2,tram
1475,1475,"ДВОРЕЦ СПОРТИВНЫХ ИГР ""ЗЕНИТ""",60.003547,30.398106,0,2,bus
16643,16643,"ВЕЩЕВОЙ РЫНОК ""ГРАЖДАНСКИЙ""",60.017710,30.432920,0,2,tram
1474,1474,ДВИНСКАЯ УЛ. 9,59.909033,30.248782,0,2,bus
16640,16640,КРОНШТАДТСКАЯ ПЛОЩАДЬ,59.850950,30.234290,0,2,tram
1473,1473,ДВИНСКАЯ УЛ. 15,59.909071,30.242108,0,2,bus
16641,16641,УЛ.МАРШАЛА НОВИКОВА,60.007208,30.265869,0,2,tram
1472,1472,ДАЧНЫЙ ПР.,59.845311,30.250960,0,2,bus
16654,16654,ПР.ЭНГЕЛЬСА,60.003122,30.327094,0,2,tram
1487,1487,ДНЕПРОПЕТРОВСКАЯ УЛ. 65,59.910267,30.357278,0,2,bus
16655,16655,ПРОСПЕКТ МАРШАЛА ЖУКОВА,59.845922,30.214006,0,2,tram
1486,1486,ДНЕПРОПЕТРОВСКАЯ УЛ.,59.907701,30.355575,0,2,bus
16652,16652,ПР.ЭНГЕЛЬСА,60.003100,30.326269,0,2,tram
1485,1485,УЛ. ГЕНЕРАЛА ХАЗОВА,59.737171,30.393702,0,2,bus
16650,16650,КИРОВСКИЙ ЗАВОД,59.876670,30.247250,0,2,tram
1483,1483,ДЕР.ЩЕРБИНКА,59.788503,30.682784,0,2,bus
16651,16651,СТАНЦИЯ РУЧЬИ,60.006244,30.436419,0,2,tram
1482,1482,"ДЕР.НОВОСАРАТОВКА,ШКОЛА",59.843895,30.523521,0,2,bus
16648,16648,УЛИЦА КАРПИНСКОГО,60.012517,30.434236,0,2,tram
1481,1481,"ДЕР.НОВОСАРАТОВКА,ПОКРОВСКАЯ ДОРОГА",59.847088,30.514775,0,2,bus
16649,16649,"ПРОСПЕКТ СТАЧЕК, 111",59.846910,30.220180,0,2,tram
1480,1480,"ДЕР.НОВОСАРАТОВКА,40",59.853951,30.505269,0,2,bus
16693,16693,"ПРОСПЕКТ МАРШАЛА ЖУКОВА, 60",59.839290,30.201830,0,2,tram
1524,1524,Ж.Д. СТ. СОСНОВАЯ ПОЛЯНА,59.825886,30.146492,0,2,bus
16692,16692,УЛИЦА ЕСЕНИНА,60.051361,30.342386,0,2,tram
1525,1525,Ж.Д. СТ. СТАРЫЙ ПЕТЕРГОФ,59.879160,29.862422,0,2,bus
16694,16694,УЛИЦА БРЯНЦЕВА,60.038353,30.406256,0,2,tram
1527,1527,"Ж.Д. СТ., ЛЕНИНСКИЙ ПР.",59.851785,30.289496,0,2,bus
16689,16689,УЛИЦА УШИНСКОГО,60.037222,30.411822,0,2,tram
1521,1521,Ж.Д. СТ. МУРИНО,60.032723,30.431080,0,2,bus
16691,16691,УЛИЦА МАРШАЛА ЗАХАРОВА,59.852744,30.199550,0,2,tram
1522,1522,Ж.Д. СТ. ПИСКАРЁВКА,59.985170,30.426128,0,2,bus
16690,16690,ПОЛИКЛИНИКА № 96,60.043558,30.380697,0,2,tram
1523,1523,Ж.Д. СТ. ПР. СЛАВЫ,59.850527,30.363588,0,2,bus
1532,1532,ЗАВОД ИМ. ЛЕНИНА,59.898520,30.406255,0,2,bus
16700,16700,УЛИЦА БУРЦЕВА,59.836940,30.198730,0,2,tram
1533,1533,ЗАГРЕБСКИЙ БУЛЬВАР,59.827210,30.416480,0,2,bus
16703,16703,ПЕТЕРГОФСКОЕ ШОССЕ,59.847270,30.196990,0,2,tram
16702,16702,Ж/Д СТАНЦИЯ КУШЕЛЕВКА,59.991830,30.354380,0,2,tram
1535,1535,ЗАМШИНА УЛ. 62,59.980707,30.407271,0,2,bus
16697,16697,УЛИЦА РИХАРДА ЗОРГЕ,59.850670,30.197690,0,2,tram
1528,1528,ЖЕЛЕЗНОДОРОЖНЫЙ ПЕРЕЕЗД,59.849056,30.124243,0,2,bus
16696,16696,ПРОСПЕКТ КУЛЬТУРЫ,60.044603,30.375567,0,2,tram
1529,1529,ЖЕЛЕЗНОДОРОЖНЫЙ ПР.,59.883218,30.424892,0,2,bus
16699,16699,СВЕТЛАНОВСКИЙ ПРОСПЕКТ,60.039686,30.399703,0,2,tram
1530,1530, РУСАНОВСКАЯ УЛ.,59.862551,30.495109,0,2,bus
16698,16698,Ж/Д СТАНЦИЯ КУШЕЛЕВКА (высадка),59.991630,30.353500,0,2,tram
1531,1531,"ЗАВОД ""КРАСНЫЙ ВЫБОРЖЕЦ""",59.960447,30.376992,0,2,bus
16676,16676,УЛИЦА СОЛДАТА КОРЗУНА,59.841736,30.205442,0,2,tram
16677,16677,УНИВЕРСАМ,59.859520,30.246970,0,2,tram
1508,1508,ДРЕЗДЕНСКАЯ УЛ.,60.013589,30.323767,0,2,bus
16678,16678,УЛИЦА КОТИНА,59.859983,30.214531,0,2,tram
1511,1511,ДУНАЙСКИЙ ПР.,59.835696,30.380003,0,2,bus
16679,16679,УЛИЦА КУСТОДИЕВА,60.047461,30.361592,0,2,tram
1510,1510,ДУНАЙСКИЙ ПР.,59.834407,30.321850,0,2,bus
16672,16672,УЛИЦА ДЕСАНТНИКОВ,59.846078,30.198197,0,2,tram
1505,1505,ЛЕНСОВЕТОВСКАЯ ДОРОГА,59.783128,30.433288,0,2,bus
16673,16673,"УЛИЦА МАРШАЛА КАЗАКОВА, 10",59.859540,30.240800,0,2,tram
1504,1504,ДОРОГА НА ПЕТРОВСКУЮ ДАЧУ,59.797109,30.664409,0,2,bus
16674,16674,УЛИЦА РУДНЕВА,60.046378,30.366922,0,2,tram
1507,1507,ДОРОГА НА ТУРУХТАННЫЕ ОСТРОВА,59.869531,30.247815,0,2,bus
16675,16675,"ПРОСПЕКТ ПРОСВЕЩЕНИЯ, 106",60.034067,30.427278,0,2,tram
1506,1506,ДОРОГА НА РУССКО-ВЫСОЦКУЮ П/Ф-КУ,59.697807,29.961594,0,2,bus
16684,16684,УЛ.ОЛЬГИ ФОРШ,60.041206,30.392244,0,2,tram
1517,1517,"ЕРМАК,2",59.814790,30.603499,0,2,bus
16685,16685,ЛЕНИНСКИЙ ПРОСПЕКТ,59.856456,30.202878,0,2,tram
1516,1516,"ЕРМАК,1",59.817794,30.597437,0,2,bus
16686,16686,УЛ.ДЕМЬЯНА БЕДНОГО,60.042303,30.386844,0,2,tram
1519,1519,Ж.Д.  СТ. ЛИГОВО,59.824021,30.180750,0,2,bus
16687,16687,УЛИЦА ИВАНА ФОМИНА,60.050294,30.347661,0,2,tram
16680,16680,УЛИЦА ДЕСАНТНИКОВ,59.860120,30.207090,0,2,tram
1513,1513,"ДУНАЙСКИЙ ПР.,ПО БУХАРЕСТСКОЙ УЛ.",59.843020,30.409140,0,2,bus
16681,16681,ПРОСПЕКТ ХУДОЖНИКОВ,60.048822,30.354900,0,2,tram
1512,1512,"ДУНАЙСКИЙ ПР., УГ. СОФИЙСКОЙ УЛ.",59.845910,30.430900,0,2,bus
1515,1515,ЕГИПЕТСКИЕ ВОРОТА,59.728670,30.395410,0,2,bus
16683,16683,"МЕТРО ""ГРАЖДАНСКИЙ ПРОСПЕКТ""",60.035314,30.421183,0,2,tram
1514,1514,"ДУНАЙСКИЙ ПР.,УГ. ПР. КОСМОНАВТОВ",59.832440,30.360300,0,2,bus
16723,16723,УЛИЦА ТАМБАСОВА,59.834706,30.156825,0,2,tram
16722,16722,"ТОРГОВЫЙ КОМПЛЕКС ""ЛЕНТА""",60.047372,30.313719,0,2,tram
16721,16721,УЛИЦА МАРШАЛА КАЗАКОВА,59.859617,30.205864,0,2,tram
1424,1424,"МАГАЗИН ""ГРАНАТ""",59.874534,30.376310,0,2,bus
1425,1425,ВАГОНОРЕМОНТНЫЙ ЗАВОД,59.886206,30.423342,0,2,bus
16727,16727,ШКОЛА,59.859792,30.221586,0,2,tram
16726,16726,УЛ. ХОШИМИНА,60.050247,30.312033,0,2,tram
1428,1428,ВАРШАВСКАЯ УЛ.,59.864711,30.313174,0,2,bus
16724,16724,УЛИЦА КОТИНА,59.859906,30.215058,0,2,tram
16731,16731,ПР.ПРОСВЕЩЕНИЯ,60.058281,30.307017,0,2,tram
1434,1434,ВЕСЕЛЬНАЯ УЛ.,59.928251,30.246212,0,2,bus
1432,1432,ВЕРБНАЯ УЛ. УГ. УЛ. РЕПИЩЕВА,60.023543,30.280594,0,2,bus
16728,16728,ПАРГОЛОВО,60.054078,30.309789,0,2,tram
16735,16735,УЛ.ЖЕНИ ЕГОРОВОЙ,60.062347,30.304056,0,2,tram
1438,1438,"ВИТЕБСКИЙ ПР.,63",59.845408,30.366145,0,2,bus
16734,16734,"УЛИЦА ЛЁТЧИКА ПИЛЮТОВА, 46",59.831040,30.139940,0,2,tram
1439,1439,"ВИТЕБСКИЙ ПР.,75",59.842129,30.367786,0,2,bus
16733,16733,УЛИЦА ЛЁТЧИКА ПИЛЮТОВА,59.835630,30.141140,0,2,tram
1436,1436,"ВИТЕБСКИЙ ПР.,109",59.820920,30.379450,0,2,bus
1437,1437,"ВИТЕБСКИЙ ПР.,31",59.861399,30.357938,0,2,bus
16706,16706,ПРОСПЕКТ ВЕТЕРАНОВ,59.833470,30.194030,0,2,tram
1411,1411,"БУЛЬВАР КРАСНОГО КУРСАНТА,49",59.882067,29.867152,0,2,bus
16707,16707,УЛ.ДЕМЬЯНА БЕДНОГО,60.042403,30.386011,0,2,tram
1410,1410,БУДАПЕШТСКАЯ УЛ.Д.104,59.831900,30.403670,0,2,bus
16704,16704,ТИМУРОВСКАЯ УЛИЦА,60.044178,30.402511,0,2,tram
1409,1409,БУДАПЕШТСКАЯ УЛ. УГ. УЛ. ДИМИТРОВА,59.848738,30.386553,0,2,bus
16705,16705,ПОЛИКЛИНИКА № 96,60.043494,30.380642,0,2,tram
1408,1408,БУДАПЕШТСКАЯ УЛ. УГ. ПР. СЛАВЫ,59.856863,30.379141,0,2,bus
16710,16710,УЛ.ОЛЬГИ ФОРШ,60.041281,30.391536,0,2,tram
16711,16711,АВАНГАРДНАЯ УЛИЦА,59.833222,30.182669,0,2,tram
16708,16708,"СТАНЦИЯ МЕТРО ""ПРОСПЕКТ ПРОСВЕЩЕНИЯ""",60.052725,30.335669,0,2,tram
1413,1413,БУЛЬВАР НОВАТОРОВ,59.844642,30.263622,0,2,bus
16709,16709,УЛИЦА РИХАРДА ЗОРГЕ,59.850060,30.197500,0,2,tram
1412,1412,БУЛЬВАР КРАСНЫХ ЗОРЬ,59.872482,30.447293,0,2,bus
16714,16714,УЛИЦА ПАРТИЗАНА ГЕРМАНА,59.833236,30.176694,0,2,tram
1419,1419,БУХАРЕСТСКАЯ УЛ. 118,59.846890,30.405253,0,2,bus
16715,16715,"СТАНЦИЯ МЕТРО ""ОЗЕРКИ""",60.037020,30.319750,0,2,tram
1418,1418,"СТ. МЕТРО ""МЕЖДУНАРОДНАЯ""",59.871460,30.380956,0,2,bus
16712,16712,УЛИЦА МАРШАЛА ЗАХАРОВА,59.851948,30.199093,0,2,tram
1417,1417,БУХАРЕСТСКАЯ УЛ.,59.859191,30.393703,0,2,bus
16713,16713,СВЕТЛАНОВСКИЙ ПРОСПЕКТ,60.039958,30.398042,0,2,tram
1416,1416,БУЛЬВАР ТРУДЯЩИХСЯ,59.735648,30.579327,0,2,bus
16718,16718,ПР.ЛУНАЧАРСКОГО,60.043264,30.316128,0,2,tram
16719,16719,УЛИЦА ДОБРОВОЛЬЦЕВ,59.833430,30.165780,0,2,tram
1421,1421,БУХАРЕСТСКАЯ УЛ. УГ. УЛ. О. ДУНДИЧА,59.833587,30.418734,0,2,bus
16717,16717,ЛЕНИНСКИЙ ПРОСПЕКТ,59.855700,30.202410,0,2,tram
1420,1420,"СТ. МЕТРО ""МЕЖДУНАРОДНАЯ""",59.871881,30.379804,0,2,bus
16753,16753,УЛ. ХОШИМИНА,60.051153,30.311361,0,2,tram
16752,16752,ПАРГОЛОВО,60.054058,30.309661,0,2,tram
16755,16755,ПР.ЛУНАЧАРСКОГО,60.044275,30.315394,0,2,tram
1458,1458,"ГОСТИНИЦА ""ПРИБАЛТИЙСКАЯ""",59.939740,30.219627,0,2,bus
16754,16754,ЕЛИЗАВЕТИНСКАЯ УЛ.,60.047411,30.313556,0,2,tram
1459,1459,"ГОСТИНИЦА ""САНКТ-ПЕТЕРБУРГ""",59.958192,30.341387,0,2,bus
16757,16757,"СТАНЦИЯ МЕТРО ""ОЗЕРКИ""",60.036990,30.319630,0,2,tram
1460,1460,ГРАЖДАНСКАЯ УЛ.,59.747541,30.102207,0,2,bus
16756,16756,ПРОСПЕКТ МАРШАЛА ЖУКОВА,59.833147,30.193219,0,2,tram
1461,1461,ГРАЖДАНСКИЙ ПР.,59.996454,30.379450,0,2,bus
16759,16759,"ПРОСПЕКТ МАРШАЛА ЖУКОВА, 60",59.839044,30.201806,0,2,tram
1462,1462,ГРАЖДАНСКИЙ ПР. УГ. ПР. ЛУНАЧАРСКОГО,60.026166,30.409638,0,2,bus
16758,16758,УЛИЦА БУРЦЕВА,59.836760,30.198770,0,2,tram
1463,1463,ГРАЖДАНСКИЙ ПР. УГ. ПР. НЕПОКОРЁННЫХ,59.996795,30.381599,0,2,bus
16761,16761,УЛИЦА ЕСЕНИНА,60.051440,30.341480,0,2,tram
1464,1464,ГРАЖДАНСКИЙ ПР. УГ. СЕВЕРНОГО ПР.,60.022929,30.404190,0,2,bus
16760,16760,"СТАНЦИЯ МЕТРО ""ПРОСПЕКТ ПРОСВЕЩЕНИЯ""",60.052440,30.336640,0,2,tram
1465,1465,"ГРАЖДАНСКИЙ ПР.,90",60.017181,30.402048,0,2,bus
16763,16763,УЛИЦА ИВАНА ФОМИНА,60.050370,30.346740,0,2,tram
1466,1466,ГРУЗОВОЙ ПРОЕЗД,59.842910,30.433800,0,2,bus
16762,16762,УЛИЦА СОЛДАТА КОРЗУНА,59.841903,30.205994,0,2,tram
1467,1467,ГУСАРСКАЯ УЛ.,59.701112,30.396418,0,2,bus
16765,16765,ПРОСПЕКТ ХУДОЖНИКОВ,60.048970,30.353650,0,2,tram
1468,1468,"ДАЛЬНЕВОСТОЧНОГО ПР.,УГ. ПР. БОЛЬШЕВИКОВ,",59.877029,30.479377,0,2,bus
16764,16764,ПЕТЕРГОФСКОЕ ШОССЕ,59.845370,30.211360,0,2,tram
1469,1469,ДАЛЬНЕВОСТОЧНЫЙ ПР.,59.883674,30.468701,0,2,bus
16767,16767,УЛИЦА КУСТОДИЕВА,60.047530,30.360730,0,2,tram
1470,1470,"ДАЛЬНЕВОСТОЧНЫЙ ПР.,УГ. УЛ. ТЕЛЬМАНА",59.890094,30.465469,0,2,bus
16766,16766,КИРОВСКИЙ ЗАВОД,59.876600,30.247200,0,2,tram
1471,1471,ДАЧНАЯ УЛ.,59.768927,30.119888,0,2,bus
16736,16736,"УЛИЦА ЛЁТЧИКА ПИЛЮТОВА, 50",59.827022,30.139910,0,2,tram
1441,1441,"ВИТИНО,2",59.654297,29.714102,0,2,bus
16737,16737,УНИВЕРСАМ,60.065081,30.302003,0,2,tram
1440,1440,"ВИТИНО,1",59.655609,29.727673,0,2,bus
16738,16738,СОСНОВАЯ ПОЛЯНА,59.825530,30.145560,0,2,tram
1443,1443,ВОКЗАЛ,59.723280,30.428900,0,2,bus
16739,16739,"СУЗДАЛЬСКИЙ ПР,5",60.066820,30.309010,0,2,tram
1442,1442,ВОЗНЕСЕНСКИЙ ПР.,59.923654,30.310723,0,2,bus
16740,16740,"УЛИЦА ПОГРАНИЧНИКА ГАРЬКАВОГО, 40",59.830914,30.147230,0,2,tram
16741,16741,КОНЕЧНАЯ СТАНЦИЯ «УЛ.ЖЕНИ ЕГОРОВОЙ»,60.064710,30.317290,0,2,tram
1444,1444,ВОКЗАЛЬНАЯ ПЛ.,59.749310,30.612850,0,2,bus
16742,16742,ПРОСПЕКТ ВЕТЕРАНОВ,59.835092,30.147267,0,2,tram
1447,1447,"ВОЛХОНСКОЕ ШОССЕ,7",59.781112,30.206667,0,2,bus
16743,16743,"СУЗДАЛЬСКИЙ ПР,5",60.066897,30.309256,0,2,tram
1446,1446,"ВОЛХОНСКОЕ ШОССЕ,4",59.784251,30.197748,0,2,bus
16744,16744,УЛИЦА ТАМБАСОВА,59.834742,30.156139,0,2,tram
1449,1449,ГАККЕЛЕВСКАЯ УЛ.,59.995631,30.251297,0,2,bus
16745,16745,УНИВЕРСАМ,60.065058,30.301872,0,2,tram
1448,1448,ВЫСОКОВОЛЬТНАЯ ЛИНИЯ,59.840328,30.539632,0,2,bus
16746,16746,УЛИЦА ДОБРОВОЛЬЦЕВ,59.833403,30.164978,0,2,tram
1451,1451,ГЕЛЬСИНГФОРССКАЯ УЛ.,59.974187,30.339539,0,2,bus
16747,16747,УЛИЦА ПАРТИЗАНА ГЕРМАНА,59.833141,30.174641,0,2,tram
1450,1450,ГАККЕЛЕВСКАЯ УЛ. УГ. БОГАТЫРСКОГО ПР.,60.001693,30.256129,0,2,bus
16748,16748,УЛ.ЖЕНИ ЕГОРОВОЙ,60.062675,30.303667,0,2,tram
1453,1453,"ГЛУХОВО,ЛЕСХОЗ",59.662940,29.767978,0,2,bus
16749,16749,ОГОРОДНЫЙ ПЕРЕУЛОК,59.885540,30.274110,0,2,tram
1452,1452,"ГЛУХАРСКАЯ УЛ., УГ. ПР. АВИАКОНСТРУКТОРОВ",60.029222,30.217650,0,2,bus
16750,16750,АВАНГАРДНАЯ УЛИЦА,59.833108,30.182092,0,2,tram
1455,1455,"ГОСТИЛИЦКОЕ ШОССЕ,УГ. ЧИЧЕРИНСКОЙ УЛ.",59.868887,29.849102,0,2,bus
16751,16751,ПР.ПРОСВЕЩЕНИЯ,60.059350,30.306103,0,2,tram
1454,1454,ГОМОНТОВО,59.572856,29.267122,0,2,bus
1642,1642,"ЛЕНИНСКИЙ ПР.,147",59.851729,30.298831,0,2,bus
17067,17067,НАБ. РЕКИ ФОНТАНКИ,59.914789,30.278653,0,2,bus
1643,1643,"ЛЕНИНСКИЙ ПР.,79",59.857656,30.195150,0,2,bus
1640,1640,"ЛЕНИНСКИЙ ПР.,95",59.852599,30.217395,0,2,bus
1641,1641,МОРСКОЙ ТЕХНИЧЕСКИЙ УНИВЕРСИТЕТ,59.852007,30.226482,0,2,bus
17064,17064,УЛ. ДОБЛЕСТИ,59.856761,30.176708,0,2,bus
1646,1646,"УЛ. ЗИНЫ ПОРТНОВОЙ, УГ. ЛЕНИНСКОГО ПР.",59.851700,30.257229,0,2,bus
17071,17071,"ПОС. МЕТАЛЛОСТРОЙ, 3А",59.790194,30.568492,0,2,bus
17070,17070,ДОРОГА НА МЕТАЛЛОСТРОЙ,59.813470,30.580640,0,2,bus
17069,17069,ДОРОГА НА МЕТАЛЛОСТРОЙ,59.813026,30.580420,0,2,bus
1644,1644,"ЛЕНИНСКИЙ ПР.,УГ. ВАРШАВСКОЙ УЛ.",59.851940,30.315360,0,2,bus
17068,17068,"УСТЬ-ИЖОРА, ПОЛЕВАЯ УЛИЦА",59.815909,30.574340,0,2,bus
1634,1634,КУРСКАЯ УЛ. 28,59.910887,30.355622,0,2,bus
17059,17059,ЛЕРМОНТОВСКИЙ ПР.,59.920076,30.294853,0,2,bus
1632,1632,КУРЛЯНДСКАЯ УЛ.,59.912185,30.277159,0,2,bus
1633,1633,КУРСКАЯ УЛ.,59.911517,30.348340,0,2,bus
17063,17063,СТ.МЕТРО «ЛЕНИНСКИЙ ПР.»,59.851249,30.267463,0,2,bus
1638,1638,ЛЕНИНГРАДСКАЯ УЛ. УГОЛ ШКОЛЬНОЙ УЛ.,59.729835,30.407612,0,2,bus
1639,1639,ЛЕНИНСКИЙ ПР.,59.851262,30.256098,0,2,bus
17062,17062,"НАРВСКАЯ УЛ., 2",59.720727,30.068614,0,2,bus
17061,17061,"НАРВСКАЯ УЛ., 10",59.718222,30.070900,0,2,bus
1636,1636,ЛАГОЛОВО,59.709304,30.012326,0,2,bus
17060,17060,"КРАСНОГОРОДСКАЯ УЛ., 17",59.717751,30.076092,0,2,bus
1637,1637,ЛАШКОВИЦЫ,59.588101,29.381953,0,2,bus
17082,17082,УЛ. СЕДОВА,59.860775,30.450411,0,2,bus
1658,1658,"ЛИГОВСКИЙ ПР.,УГ. МОСКОВСКОГО ПР.",59.891527,30.320325,0,2,bus
17083,17083,"ПОЛЕВАЯ УЛ., 22",59.815830,30.568680,0,2,bus
17080,17080,"КЛАДБИЩЕ ""ПАМЯТИ ЖЕРТВ ДЕВЯТОГО ЯНВАРЯ""",59.853212,30.438538,0,2,bus
17081,17081,УЛ. СЕДОВА,59.861466,30.449595,0,2,bus
1656,1656,ЛЕТНИЙ САД,59.941963,30.335236,0,2,bus
1663,1663,"ЛОМОНОСОВ,ВОКЗАЛ",59.917450,29.770250,0,2,bus
1662,1662,ЛИФЛЯНДСКАЯ УЛ.,59.908777,30.266718,0,2,bus
1661,1661,ЛИТОВСКАЯ УЛ.,59.977946,30.367449,0,2,bus
1660,1660,ЛИТЕЙНЫЙ ПР.,59.932563,30.349423,0,2,bus
1651,1651,ЛЕНСКАЯ УЛ. УГ. БЕЛОРУССКОЙ УЛ.,59.939870,30.501710,0,2,bus
1650,1650,ЛЕНСКАЯ УЛ. ПО ПР. НАСТАВНИКОВ,59.940003,30.488970,0,2,bus
17075,17075,МАЛАЯ БУХАРЕСТСКАЯ УЛ.,59.851620,30.411400,0,2,bus
1649,1649,ЛЕНСКАЯ УЛ.,59.940000,30.496885,0,2,bus
17072,17072,БУДАПЕШТСКАЯ УЛ.,59.848348,30.387647,0,2,bus
1648,1648,ЛЕНСКАЯ УЛ.,59.941060,30.476700,0,2,bus
17073,17073,БУХАРЕСТСКАЯ УЛ.,59.851508,30.400779,0,2,bus
1655,1655,ЛЕСНОЙ ПР.,59.985063,30.340978,0,2,bus
17078,17078,СОФИЙСКАЯ УЛ.,59.852120,30.424330,0,2,bus
1654,1654,ЛЕСНАЯ УЛ.,59.908210,29.809610,0,2,bus
17079,17079,"КЛАДБИЩЕ ""ПАМЯТИ ЖЕРТВ ДЕВЯТОГО ЯНВАРЯ""",59.853061,30.438662,0,2,bus
17076,17076,МАЛАЯ БУХАРЕСТСКАЯ УЛ.,59.852090,30.409491,0,2,bus
17077,17077,СОФИЙСКАЯ УЛ.,59.851980,30.427570,0,2,bus
1652,1652,ЛЕРМОНТОВСКИЙ ПР.,59.919748,30.295739,0,2,bus
1608,1608,КРАСНОГВАРДЕЙСКАЯ ПЛ.,59.942496,30.414168,0,2,bus
1609,1609,КРАСНОГРАДСКИЙ ПЕР.,59.925329,30.307889,0,2,bus
1610,1610,КРАСНОПУТИЛОВСКАЯ УЛ.,59.848725,30.315050,0,2,bus
1611,1611,"КРАСНОПУТИЛОВСКАЯ УЛ., 95",59.853300,30.302486,0,2,bus
1612,1612,КРАСНОПУТИЛОВСКАЯ УЛ. 67,59.861018,30.287600,0,2,bus
1613,1613,КРАСНОПУТИЛОВСКАЯ УЛ. 85,59.855265,30.298821,0,2,bus
1615,1615,"КРАСНОСЕЛЬСКОЕ ШОССЕ,32",59.822231,30.073476,0,2,bus
1601,1601,КОННОГВАРДЕЙСКИЙ ПЕР.,59.932996,30.298679,0,2,bus
1602,1602,КОНСТАНТИНОВСКИЙ ДВОРЕЦ,59.851628,30.062141,0,2,bus
1603,1603,КОНТОРСКАЯ УЛ.,59.945299,30.413487,0,2,bus
1604,1604,КОНЮШЕННАЯ УЛ.,59.722520,30.414010,0,2,bus
1606,1606,КРАСНАЯ МЫЗА,59.597986,29.447431,0,2,bus
1607,1607,КРАСНАЯ УЛ.,59.740862,30.604640,0,2,bus
1625,1625,КУЗНЕЧНЫЙ ПЕРЕУЛОК,59.926072,30.358005,0,2,bus
17049,17049,НОВОСЕЛЬЕ 1,59.806438,30.076940,0,2,bus
1627,1627,КУПЧИНСКАЯ УЛ.,59.827800,30.398550,0,2,bus
1626,1626,КУЗЬМИНСКОЕ ШОССЕ,59.733406,30.394060,0,2,bus
1629,1629,КУПЧИНСКАЯ УЛ. ПО УЛ. О. ДУНДИЧА,59.827920,30.396370,0,2,bus
1628,1628,"КИНОЦЕНТР ""ЧАЙКА""",59.846469,30.380366,0,2,bus
17053,17053,ПР.ВЕТЕРАНОВ,59.835690,30.146780,0,2,bus
17054,17054,ЗАГРЕБСКИЙ БУЛЬВАР,59.831624,30.412881,0,2,bus
1631,1631,КУПЧИНСКАЯ УЛ. УГ. УЛ. Я. ГАШЕКА,59.834540,30.391390,0,2,bus
1630,1630,КУПЧИНСКАЯ УЛ. (ПО УЛ. Я. ГАШЕКА),59.833060,30.391360,0,2,bus
1616,1616,"КРАСНОСЕЛЬСКОЕ ШОССЕ,40",59.788634,30.143205,0,2,bus
1619,1619,КРОНШТАДСКАЯ УЛ.,59.872774,30.256370,0,2,bus
1618,1618,КРАСНОФЛОТСКИЙ ПЕР.,59.851925,30.079867,0,2,bus
1621,1621,КРОНШТАДТСКАЯ ПЛОЩАДЬ,59.852003,30.240673,0,2,bus
1620,1620,КРОНШТАДТСКАЯ ПЛОЩАДЬ,59.850960,30.234590,0,2,bus
1623,1623,КУЗНЕЦОВСКАЯ УЛ.,59.872436,30.320612,0,2,bus
1622,1622,КУБИНСКАЯ УЛ.,59.858458,30.293384,0,2,bus
17135,17135,БУЛЬВАР НОВАТОРОВ ПО ДАЧНОМУ ПР.,59.842216,30.254623,0,2,bus
1582,1582,КАСЬКОВО,59.621480,29.507299,0,2,bus
17134,17134,ОХОТНИЧЬЯ УЛ.,59.841800,30.008350,0,2,bus
17133,17133,ОТДЕЛЕНИЕ «НОЙДОРФ»,59.841070,30.002990,0,2,bus
1580,1580,"КАРЬЕР МЯГЛОВО,ДОРОГА НА ОСТРОВКИ",59.859178,30.671533,0,2,bus
1581,1581,"КАРЬЕР МЯГЛОВО,Ж.Д.  ПЕРЕЕЗД",59.865117,30.670953,0,2,bus
1578,1578,КАПИТАНСКАЯ УЛ.,59.953837,30.218550,0,2,bus
1579,1579,КАРДИОЛОГИЧЕСКИЙ ЦЕНТР,60.015386,30.304317,0,2,bus
1577,1577,КАНТЕМИРОВСКАЯ УЛ.,59.985225,30.335081,0,2,bus
1574,1574,КАМЕННЫЙ ОСТРОВ,59.978684,30.299788,0,2,bus
1575,1575,КАМЫШОВАЯ УЛ.,60.004959,30.257813,0,2,bus
1573,1573,КАЙКИНО,59.587585,29.353441,0,2,bus
1570,1570,"КАДЕТСКИЙ БУЛЬВАР, УГ. ЗАХАРЖЕВСКОЙ УЛ.",59.707306,30.405472,0,2,bus
1571,1571,КАЗАНСКАЯ УЛ.,59.928834,30.308141,0,2,bus
1568,1568,ИСПОЛКОМСКАЯ УЛ.,59.925174,30.381180,0,2,bus
1569,1569,КАДЕТСКАЯ ЛИНИЯ УГ. СРЕДНЕГО ПР.,59.945870,30.285710,0,2,bus
1598,1598,КОМСОМОЛЬСКАЯ ПЛОЩАДЬ,59.876973,30.257206,0,2,bus
1597,1597,КОМСОМОЛЬСКАЯ ПЛОЩАДЬ,59.874975,30.258093,0,2,bus
1596,1596,"КОМЕНДАНТСКИЙ ПР.,УГОЛ ШУВАЛОВСКОГО ПР.",60.027032,30.236463,0,2,bus
17149,17149,МЕНШИКОВСКИЙ ПР. УГ. ПР. НЕПОКОРЕННЫХ,59.991740,30.425096,0,2,bus
1595,1595,"КОМЕНДАНТСКИЙ ПР.,22",60.013882,30.252573,0,2,bus
1594,1594,"КОМЕНДАНТСКИЙ ПР.,16",60.011403,30.255477,0,2,bus
1593,1593,"ЛИГОВСКИЙ ПР.,283",59.898455,30.337262,0,2,bus
1592,1592,"КОЛПИНО,ДОРОГА К ДСК",59.749430,30.550630,0,2,bus
17142,17142,УНИВЕРСИТЕТСКИЙ ПР.,59.874444,29.856111,0,2,bus
1591,1591,"КОЛОМЯЖСКИЙ ПР.,УГ. ПАРАШЮТНОЙ УЛ.",60.015605,30.292522,0,2,bus
17143,17143,УНИВЕРСИТЕТСКИЙ ПР.,59.874452,29.855819,0,2,bus
1590,1590,КОВЕНСКИЙ ПЕР.,59.936992,30.360138,0,2,bus
17140,17140,ЛЕОНТЬЕВСКАЯ УЛ.,59.724040,30.409950,0,2,bus
17141,17141,УНИВЕРСИТЕТСКИЙ ПР.,59.872210,29.868951,0,2,bus
1588,1588,КИРОЧНАЯ УЛ. УГ. СУВОРОВСКОГО ПР.,59.942506,30.380938,0,2,bus
17138,17138,БАССЕЙНАЯ,59.865170,30.356070,0,2,bus
1586,1586,КИПЕНЬ,59.672998,29.849648,0,2,bus
1585,1585,"КИНГИСЕППСКОЕ ШОССЕ,55",59.719828,30.059464,0,2,bus
17137,17137,БАССЕЙНАЯ,59.864987,30.356705,0,2,bus
1584,1584,"КЕМПОЛОВО,1",59.604855,29.463152,0,2,bus
1548,1548,ЗЕМСКИЙ ПЕР.,60.023401,30.292414,0,2,bus
1549,1549,"ЗНАМЕНКА,ЛИПОВАЯ АЛЛЕЯ",59.871316,29.969255,0,2,bus
1550,1550,"ЗНАМЕНКА,МОСТОВАЯ УЛ.",59.873890,29.952781,0,2,bus
1551,1551,ИВАНОВСКАЯ УЛ.,59.875026,30.445138,0,2,bus
1544,1544,ЗАЯЧИЙ ПЕР.,59.941056,30.380193,0,2,bus
1546,1546,ЗВЕЗДНАЯ УЛ.,59.836557,30.370569,0,2,bus
1547,1547,ЗЕМЛЕДЕЛЬЧЕСКАЯ УЛ.,59.990051,30.332865,0,2,bus
1540,1540,ЗАРЕЧНАЯ УЛ. 14,59.776967,30.146144,0,2,bus
1541,1541,ЗАРЕЧНАЯ УЛ. УГ. АННИНСКОГО ШОССЕ,59.779894,30.148918,0,2,bus
1542,1542,ЗАСТАВСКАЯ УЛ.,59.889399,30.319954,0,2,bus
1543,1543,"ЗАХАРЖЕВСКАЯ УЛ., УГ. ПАВЛОВСКОГО ШОССЕ",59.708528,30.413028,0,2,bus
1536,1536,ЗАМШИНА УЛ. УГ. ПР. МЕЧНИКОВА,59.985122,30.412492,0,2,bus
1538,1538,"ЗАНЕВСКИЙ ПР.,З2",59.931361,30.425655,0,2,bus
1539,1539,ЗАПОРОЖСКАЯ УЛ. 23,59.850968,30.468665,0,2,bus
1565,1565,"ИСКРОВСКИЙ ПР.,6",59.914019,30.459099,0,2,bus
1564,1564,ИСААКИЕВСКАЯ ПЛОЩАДЬ,59.931957,30.307376,0,2,bus
1561,1561,ИРИНОВСКИЙ ПР.,59.955347,30.467038,0,2,bus
1560,1560,ИНСТИТУТСКИЙ ПР.,60.006022,30.354949,0,2,bus
1562,1562,"ИРИНОВСКИЙ ПР.,УГ. УЛ. КОММУНЫ",59.961281,30.489138,0,2,bus
1556,1556,ИНДУСТРИАЛЬНЫЙ ПР.,59.951093,30.470573,0,2,bus
1559,1559,ИНСТИТУТ ИМ. БЕХТЕРЕВА,59.903934,30.404215,0,2,bus
1558,1558,ИНЖЕНЕРНАЯ УЛ.,59.937035,30.336209,0,2,bus
1553,1553,ИВАНОВСКАЯ УЛ. ПО УЛ. СЕДОВА,59.873890,30.436619,0,2,bus
1552,1552,ИВАНОВСКАЯ УЛ.,59.873890,30.436699,0,2,bus
1554,1554,ИНДУСТРИАЛЬНЫЙ ПР.,59.955811,30.465977,0,2,bus
1763,1763,"ПАРГОЛОВО,ТОРГОВЫЙ ЦЕНТР",60.083526,30.263866,0,2,bus
1762,1762,"БОГАТЫРСКИЙ ПР. УГ. БАЙКОНУРСКОЙ УЛ. [127, 172]",59.998868,30.278213,0,2,bus
16931,16931,КОНДРАТЬЕВСКИЙ ПРОСПЕКТ,59.966050,30.380120,0,2,trolley
1760,1760,ОСИНОВАЯ РОЩА,60.111640,30.242085,0,2,bus
1767,1767,ПЕНСИОННЫЙ ФОНД,59.919530,30.444442,0,2,bus
1766,1766,ПАРУС 000,59.904606,29.813654,0,2,bus
1765,1765,ПАРТИЗАНСКАЯ УЛ.,59.948612,30.435987,0,2,bus
1764,1764,ПАРКОВАЯ УЛ.,59.711553,30.410993,0,2,bus
16933,16933,УЛИЦА ЖАКА ДЮКЛО  /  СВЕТЛАНОВСКИЙ ПРОСПЕКТ,60.013033,30.352775,0,2,trolley
16938,16938,УЛИЦА МАРШАЛА ГОВОРОВА,59.875906,30.263878,0,2,tram
16939,16939,СЕВЕРНАЯ ПЛОЩАДЬ,60.023722,30.408194,0,2,trolley
16936,16936,ПРОСПЕКТ ЕЛИЗАРОВА,59.898610,30.430690,0,2,tram
1769,1769,ПЕРЕЕЗД,59.798581,30.657434,0,2,bus
1768,1768,ПЕНСИОННЫЙ ФОНД,59.961706,30.378101,0,2,bus
1775,1775,ПИОНЕРСКАЯ УЛ.,59.957421,30.291060,0,2,bus
1774,1774,ПЕТРО-СЛАВЯНКА,59.789722,30.494500,0,2,bus
16943,16943,ХАСАНСКАЯ УЛИЦА (посадки нет),59.935670,30.484880,0,2,trolley
16940,16940,ПРИДОРОЖНАЯ АЛЛЕЯ (посадки нет),60.059083,30.344750,0,2,trolley
1772,1772,САНКТ-ПЕТЕРБУРГСКОЕ ШОССЕ,59.853500,30.100720,0,2,bus
16941,16941,ПЛОЩАДЬ МУЖЕСТВА (посадки нет),59.997430,30.363300,0,2,trolley
16947,16947,ЛЕСНОЙ ПРОСПЕКТ,59.988470,30.340530,0,2,tram
16946,16946,УЛИЦА ПОГРАНИЧНИКА ГАРЬКАВОГО,59.835606,30.147842,0,2,tram
16945,16945,МАЛАЯ БАЛКАНСКАЯ УЛИЦА (посадки нет),59.827440,30.421139,0,2,trolley
1776,1776,ПИСКАРЁВСКИЙ ПР.,59.979813,30.422168,0,2,bus
16944,16944,ПРОСПЕКТ НАСТАВНИКОВ,59.936100,30.486600,0,2,trolley
16951,16951,"СТАНЦИЯ МЕТРО ""ЛАДОЖСКАЯ"" (посадки нет)",59.929130,30.435440,0,2,tram
1782,1782,ПЛАНЕРНАЯ УЛ.,60.007609,30.235232,0,2,bus
16950,16950,РЫБАЦКОЕ (посадки нет),59.833778,30.499139,0,2,tram
1780,1780,"ПИСКАРЁВСКИЙ ПР., 50 ",59.989576,30.430821,0,2,bus
16948,16948,1-Й МУРИНСКИЙ ПРОСПЕКТ,59.988756,30.340622,0,2,tram
1781,1781,ПИСКАРЁВСКОЕ МЕМОРИАЛЬНОЕ КЛАДБИЩЕ,59.994340,30.418997,0,2,bus
1787,1787,ПЛОЩАДЬ БЕХТЕРЕВА,59.900532,30.402734,0,2,bus
1784,1784,ПЛОВДИВСКАЯ УЛ.,59.840070,30.377630,0,2,bus
16953,16953,ПРОСПЕКТ ВЕТЕРАНОВ (посадки нет),59.845080,30.249690,0,2,trolley
16952,16952,ТРАМВАЙНЫЙ ПАРК № 1 (посадки нет),59.898330,30.317880,0,2,tram
1785,1785,ПЛОЩАДЬ АВРОВА,59.874472,29.921196,0,2,bus
1790,1790,ПЛОЩАДЬ МУЖЕСТВА,60.000196,30.362771,0,2,bus
16959,16959,СВЕТЛАНОВСКИЙ ПРОСПЕКТ (посадки нет),60.046180,30.407080,0,2,trolley
1791,1791,ПЛОЩАДЬ ПОБЕДЫ,59.842908,30.323594,0,2,bus
16958,16958,УЛИЦА УШИНСКОГО,60.044920,30.418100,0,2,trolley
1788,1788,ПЛ. КАЛИНИНА,59.971593,30.387681,0,2,bus
16957,16957,УЛИЦА УШИНСКОГО,60.045450,30.417120,0,2,trolley
1789,1789,ПЛОЩАДЬ КОНСТИТУЦИИ,59.851753,30.307683,0,2,bus
16956,16956,СУЗДАЛЬСКИЙ ПРОСПЕКТ,60.043520,30.426480,0,2,trolley
1729,1729,НОВОЛИТОВСКАЯ УЛ.,59.984022,30.362323,0,2,bus
1728,1728,НОВОКОЛОМЯЖСКИЙ ПР.,60.024260,30.299059,0,2,bus
1731,1731,"НОВОСМОЛЕНСКАЯ НАБ.,6",59.948400,30.224620,0,2,bus
16898,16898,УЛИЦА БЕЛЫ КУНА / ПРАЖСКАЯ УЛИЦА,59.873920,30.389110,0,2,trolley
1730,1730,"НОВОСМОЛЕНСКАЯ НАБ.,2",59.947520,30.229960,0,2,bus
16899,16899,КАМЕННООСТРОВСКИЙ ПРОСПЕКТ,59.963870,30.312050,0,2,trolley
1733,1733,НОВОЧЕРКАССКИЙ ПР.,59.942483,30.407027,0,2,bus
16900,16900,ШОССЕ РЕВОЛЮЦИИ,59.959513,30.423439,0,2,trolley
1732,1732,"НОВОСМОЛЕНСКАЯ НАБ.,УГ. УЛ. КОРАБЛЕСТРОИТЕЛЕЙ",59.948959,30.215670,0,2,bus
16901,16901,ПЛОЩАДЬ КОНСТИТУЦИИ,59.852100,30.307700,0,2,trolley
1735,1735,"НОВОЧЕРКАССКИЙ ПР.,УГ. КРАСНОГВАРДЕЙСК. ПЛОЩАДЬ",59.941189,30.408406,0,2,bus
16902,16902,ПЛОЩАДЬ КОНСТИТУЦИИ,59.851770,30.307920,0,2,trolley
1737,1737,"ОБЪЕДИНЕНИЕ ""ЛУЧ""",59.949419,30.421109,0,2,bus
16904,16904,ПРОСП. НЕПОКОРЁННЫХ / ГРАЖДАНСКИЙ ПРОСП.,59.996680,30.381440,0,2,trolley
1736,1736,"СТ. МЕТРО ""ОБВОДНЫЙ КАНАЛ""",59.914355,30.350167,0,2,bus
1739,1739,"ОБЪЕДИНЕНИЕ ""СВЕТЛАНА""",60.005396,30.333354,0,2,bus
16906,16906,"СТАНЦИЯ МЕТРО ""КУПЧИНО"" (посадки нет)",59.830861,30.379361,0,2,trolley
1738,1738,"ОБЪЕДИНЕНИЕ ""РУССКИЕ САМОЦВЕТЫ""",59.936036,30.435017,0,2,bus
16907,16907,БОЛЬШОЙ САМПСОНИЕВСКИЙ ПРОСПЕКТ,59.984370,30.336400,0,2,trolley
1741,1741,ВЕРБНАЯ УЛ.,60.023690,30.282463,0,2,bus
16908,16908,"СТАНЦИЯ МЕТРО ""МОСКОВСКИЕ ВОРОТА"" (посадки нет)",59.892210,30.319450,0,2,trolley
1740,1740,"ОБЪЕДИНЕНИЕ ""СОКОЛ""",59.953124,30.449851,0,2,bus
16909,16909,БЛАГОДАТНАЯ УЛИЦА,59.876160,30.337760,0,2,trolley
1743,1743,ОГОРОДНЫЙ ПЕР.,59.886867,30.267897,0,2,bus
16910,16910,ПРАЖСКАЯ УЛИЦА / УЛИЦА БЕЛЫ КУНА,59.874294,30.387714,0,2,trolley
1742,1742,ОВЦИНО,59.812231,30.608358,0,2,bus
1744,1744,ОЗЕРКОВАЯ УЛ. 51,59.872933,29.890579,0,2,bus
1745,1745,"ОКТЯБРЬСКАЯ НАБ.,102",59.869676,30.482637,0,2,bus
16915,16915,НАБ. РЕКИ ФОНТАНКИ,59.917572,30.296772,0,2,tram
1746,1746,"ОКТЯБРЬСКАЯ НАБ.,106",59.866958,30.486113,0,2,bus
16914,16914,СЕВЕРНЫЙ ПРОСПЕКТ (конечная),60.023610,30.406820,0,2,trolley
1748,1748,"ОКТЯБРЬСКАЯ НАБ.,78",59.872388,30.463520,0,2,bus
1749,1749,"ОКТЯБРЬСКАЯ НАБ.,94",59.871033,30.471182,0,2,bus
1750,1750,"ОКТЯБРЬСКАЯ УЛ.,51",59.743070,30.616740,0,2,bus
16919,16919,КОННОГВАРДЕЙСКИЙ БУЛЬВАР,59.932370,30.296440,0,2,trolley
1751,1751,"ОКТЯБРЬСКАЯ УЛ.,65",59.740190,30.619880,0,2,bus
16918,16918,"СТАНЦИЯ МЕТРО ""ПИОНЕРСКАЯ""",60.002583,30.299556,0,2,trolley
1752,1752,ОКТЯБРЬСКИЙ БУЛЬВАР,59.722139,30.411694,0,2,bus
16921,16921,УЛИЦА ВАТУТИНА,59.965630,30.374560,0,2,trolley
1753,1753,ОЛЬХОВАЯ УЛ.,60.015268,30.269604,0,2,bus
16920,16920,УЛИЦА ВАТУТИНА,59.965680,30.372610,0,2,trolley
1754,1754,ОМСКАЯ УЛ.,59.994542,30.316511,0,2,bus
16923,16923,ЗВЁЗДНАЯ УЛИЦА (посадки нет),59.835250,30.369920,0,2,trolley
16922,16922,ГАККЕЛЕВСКАЯ УЛИЦА,59.994440,30.253614,0,2,tram
1755,1755,ОРАНЖЕРЕЙНАЯ УЛ.УГ.ЛЕНИНГРАДСКОЙ УЛ.,59.726389,30.417056,0,2,bus
1756,1756,ОРАНИЕНБАУМСКИЙ СПУСК,59.888635,29.876732,0,2,bus
1757,1757,ОРДИНАРНАЯ УЛ.,59.964425,30.309674,0,2,bus
1758,1758,ОРЛОВСКИЙ ПРУД,59.851364,30.047446,0,2,bus
16927,16927,"МЕТРО ""ПЛОЩАДЬ АЛЕКСАНДРА НЕВСКОГО""",59.924078,30.383503,0,2,trolley
1759,1759,ОРТОПЕДИЧЕСКИЙ ЦЕНТР,59.977649,30.430160,0,2,bus
1703,1703,НАБ. КОМСОМОЛЬСКОГО КАН.,59.747139,30.614750,0,2,bus
1701,1701,МЯСОКОМБИНАТ,59.829135,30.348835,0,2,bus
16996,16996,"МЕТРО ""УЛИЦА ДЫБЕНКО""",59.906030,30.482990,0,2,trolley
1700,1700,МЯГЛОВО,59.891814,30.684370,0,2,bus
1699,1699,МЫТНИНСКАЯ УЛ.,59.934204,30.380556,0,2,bus
16994,16994,БИРЖЕВАЯ ПЛОЩАДЬ,59.944321,30.304484,0,2,trolley
1698,1698,МУЗЕЙ А.В. СУВОРОВА,59.943717,30.376575,0,2,bus
1697,1697,"МОСКОВСКОЕ ШОССЕ,35",59.819452,30.365080,0,2,bus
16992,16992,КРАСНОГВАРДЕЙСКАЯ ПЛОЩАДЬ,59.940713,30.408800,0,2,trolley
1696,1696,"МОСКОВСКОЕ ШОССЕ,22 КМ",59.765029,30.466555,0,2,bus
1711,1711,НАГОРНАЯ УЛ.,59.857030,30.010400,0,2,bus
17006,17006,УЛИЦА ПОДВОЙСКОГО,59.912889,30.476583,0,2,trolley
17004,17004,ПРОСПЕКТ ЮРИЯ ГАГАРИНА (посадки нет),59.856056,30.336278,0,2,tram
1709,1709,НАБ. РЕКИ ФОНТАНКИ,59.921103,30.317599,0,2,bus
17005,17005,ПР. НАУКИ,60.017439,30.367456,0,2,tram
1708,1708,"НАБ. ОБВОДНОГО КАНАЛА,74",59.911271,30.328992,0,2,bus
17002,17002,МОСКОВСКИЕ ВОРОТА (посадки нет),59.892140,30.319400,0,2,tram
1707,1707,"НАБ. ОБВОДНОГО КАНАЛА,150",59.908752,30.270950,0,2,bus
1706,1706,"НАБ. ОБВОДНОГО КАНАЛА,138",59.908709,30.281836,0,2,bus
17000,17000,Ж/Д СТАНЦИЯ КУШЕЛЕВКА (посадки нет),59.990967,30.353500,0,2,tram
1705,1705,"НАБ. ОБВОДНОГО КАНАЛА,11",59.918090,30.388800,0,2,bus
1704,1704,НАБ. ОБВОДНОГО КАНАЛА,59.910090,30.307580,0,2,bus
1718,1718,НАРОДНАЯ УЛ. УГ. ДАЛЬНЕВОСТОЧНОГО ПР.,59.881168,30.470244,0,2,bus
1719,1719,НЕВСКИЙ ЛЕСОПАРК,59.828444,30.565886,0,2,bus
1716,1716, ПРАВОБЕРЕЖНЫЕ БАНИ,59.883661,30.479918,0,2,bus
1717,1717,ГОСПИТАЛЬ,59.879474,30.461144,0,2,bus
1714,1714,НАРОДНАЯ УЛ.,59.879051,30.456334,0,2,bus
17010,17010,УЛИЦА МАРШАЛА КАЗАКОВА (посадки нет),59.860330,30.226110,0,2,tram
1715,1715,НАРОДНАЯ УЛ. 100,59.884513,30.486098,0,2,bus
1713,1713,НАРВСКИЙ ПР.,59.905201,30.274215,0,2,bus
1726,1726,"НОВОИЗМАЙЛОВСКИЙ ПР.,79",59.856300,30.304811,0,2,bus
1724,1724,НОВГОРОДСКАЯ УЛ. 26,59.941372,30.390409,0,2,bus
1725,1725,"НОВОИЗМАЙЛОВСКИЙ ПР.,45",59.860420,30.304999,0,2,bus
1722,1722,НИКОЛЬСКАЯ ПЛОЩАДЬ,59.921320,30.301920,0,2,bus
1723,1723,"НОВАЯ ДЕРЕВНЯ,3-Я СОВЕТСКАЯ УЛ.",59.725470,30.447251,0,2,bus
1720,1720,НЕВСКИЙ ПР.,59.925485,30.379642,0,2,bus
1721,1721,НЕЙШЛОТСКИЙ ПЕР.,59.968053,30.349470,0,2,bus
1669,1669,"СТ. М. ""АДМИРАЛТЕЙСКАЯ""",59.936022,30.313847,0,2,bus
16964,16964,"СТАНЦИЯ МЕТРО ""СТАРАЯ ДЕРЕВНЯ"" (высадка)",59.990530,30.254950,0,2,trolley
16965,16965,УЛИЦА ШАВРОВА (посадки нет),60.024472,30.233861,0,2,tram
1668,1668,МАЛАЯ БУХАРЕСТСКАЯ УЛ.,59.844410,30.417610,0,2,bus
16966,16966,БОЛЬШОЙ САМПСОНИЕВСКИЙ ПРОСПЕКТ,59.988500,30.334595,0,2,tram
1671,1671,МАЛЫЙ ПР. В.О.,59.936910,30.233588,0,2,bus
16967,16967,"ОБОРОТНАЯ СТАНЦИЯ ""УДЕЛЬНЫЙ ПАРК""",60.000722,30.311389,0,2,tram
1670,1670,МАЛАЯ МОРСКАЯ УЛ.,59.936791,30.313353,0,2,bus
1665,1665,"МАГАЗИН ""СТРОИТЕЛЬ""",59.949229,30.224563,0,2,bus
16960,16960,СУЗДАЛЬСКИЙ ПРОСПЕКТ,60.047367,30.406600,0,2,trolley
1664,1664,"МАГАЗИН ""ВЕСНА""",59.975267,30.401313,0,2,bus
1667,1667,МАЛАЯ БАЛКАНСКАЯ УЛ. УГ. УЛ. О. ДУНДИЧА,59.829208,30.385239,0,2,bus
16962,16962,СВЕТЛАНОВСКИЙ ПРОСПЕКТ,60.046500,30.407890,0,2,trolley
1666,1666,МАЛАЯ БАЛКАНСКАЯ УЛ. ПО УЛ. Я. ГАШЕКА,59.831084,30.385184,0,2,bus
16972,16972,Ж/Д СТАНЦИЯ ЛАНСКАЯ,59.994530,30.329380,0,2,tram
1677,1677,МАСЛЯНЫЙ ПЕРЕУЛОК,59.909902,30.325219,0,2,bus
1676,1676,МАРИИНСКИЙ ТЕАТР,59.925506,30.292337,0,2,bus
16974,16974,"ГОСТИНИЦА ""ВЫБОРГСКАЯ""",59.987160,30.304540,0,2,tram
1679,1679,ВОЛКОВСКИЙ ПР.,59.901269,30.366265,0,2,bus
1678,1678,МАСТЕРОВОЙ ПЕР.,59.882261,29.894657,0,2,bus
16968,16968,Ж/Д СТАНЦИЯ РЖЕВКА (посадка),59.980733,30.508756,0,2,tram
1673,1673,МАЛЬЦЕВСКИЙ РЫНОК,59.938431,30.366764,0,2,bus
16969,16969,НЕВСКИЙ ЗАВОД (посадки нет),59.905444,30.418278,0,2,tram
1672,1672,"МАЛЫЙ ПР. В.О.,УГ. НАЛИЧНОЙ УЛ.",59.937534,30.236020,0,2,bus
16971,16971,ХАСАНСКАЯ УЛ.,59.935500,30.483806,0,2,tram
1674,1674,МАНЧЕСТЕРСКАЯ УЛ.,60.011233,30.324715,0,2,bus
16981,16981,ПРОСПЕКТ ЛУНАЧАРСКОГО (посадки нет),60.020800,30.433240,0,2,tram
1684,1684,МОРДВИНОВКА,59.899250,29.827630,0,2,bus
1685,1685,МОРСКАЯ УЛ. 35,59.909243,29.803594,0,2,bus
16980,16980,СВЕТЛАНОВСКИЙ ПРОСПЕКТ / ТИХОРЕЦКИЙ ПРОСПЕКТ,60.017617,30.367290,0,2,trolley
1687,1687,МОСКОВСКАЯ ПЛОЩАДЬ,59.850721,30.322799,0,2,bus
16982,16982,"МЕТРО ""ЛОМОНОСОВСКАЯ""",59.878211,30.441297,0,2,trolley
16977,16977,Ж/Д СТАНЦИЯ ЛАНСКАЯ,59.993417,30.325600,0,2,tram
1680,1680,ВОЛКОВСКИЙ ПР.,59.901548,30.365496,0,2,bus
1681,1681,"ПОС. МЕТАЛЛОСТРОЙ,3",59.792876,30.564255,0,2,bus
16979,16979,САД БЕНУА,60.019400,30.369269,0,2,trolley
1683,1683,МИЧУРИНСКАЯ УЛ.,59.955582,30.329050,0,2,bus
16978,16978,ТИХОРЕЦКИЙ ПРОСПЕКТ (конечная),60.011500,30.368200,0,2,trolley
1692,1692,МОСКОВСКИЙ ПР.,59.908306,30.319696,0,2,bus
16989,16989,УЛИЦА ДОБЛЕСТИ,59.860800,30.181220,0,2,trolley
16988,16988,СТАНЦИЯ РУЧЬИ,60.004847,30.438386,0,2,tram
1693,1693,"МОСКОВСКИЙ ПР.,129",59.884934,30.319309,0,2,bus
1694,1694,"МОСКОВСКИЙ ПР.,4",59.925197,30.317677,0,2,bus
16991,16991,УЛИЦА ГЕНЕРАЛА ХРУЛЁВА,59.997050,30.299570,0,2,trolley
16990,16990,Ж/Д СТАНЦИЯ РЖЕВКА (посадки нет),59.980160,30.510420,0,2,tram
1695,1695,"МОСКОВСКИЙ ПР.,5",59.925168,30.317380,0,2,bus
1688,1688,МОСКОВСКАЯ ПЛОЩАДЬ,59.852860,30.324650,0,2,bus
1689,1689,МОСКОВСКАЯ СЛАВЯНКА,59.748811,30.496608,0,2,bus
16987,16987,УЛИЦА ЯРОСЛАВА ГАШЕКА,59.838150,30.413660,0,2,tram
1690,1690,МОСКОВСКАЯ УЛ.,59.719558,30.408391,0,2,bus
16986,16986,МАЛАЯ БАЛКАНСКАЯ УЛИЦА (посадки нет),59.827460,30.421890,0,2,tram
1691,1691,МОСКОВСКИЙ ВОКЗАЛ,59.929224,30.360326,0,2,bus
1915,1915,ПР. СТАЧЕК,59.852032,30.232333,0,2,bus
1914,1914,"ПР. СОЛИДАРНОСТИ,11",59.921040,30.492316,0,2,bus
1916,1916,АДМИНИСТРАЦИЯ КИРОВСКОГО РАЙОНА,59.894490,30.275093,0,2,bus
1919,1919,ПР. УДАРНИКОВ УГ. УЛ. КОММУНЫ,59.956820,30.492753,0,2,bus
1918,1918,ПР. УДАРНИКОВ,59.957389,30.493641,0,2,bus
1905,1905,"ПР. ПРОСВЕЩЕНИЯ,УГ. УЛ. УШИНСКОГО",60.037581,30.411803,0,2,bus
1904,1904,ПР. ПРОСВЕЩЕНИЯ УГ. УЛ. СИМОНОВА,60.055808,30.322437,0,2,bus
1907,1907,"ПР. ПЯТИЛЕТОК,ЛЕДОВЫЙ ДВОРЕЦ",59.920750,30.467306,0,2,bus
1906,1906,"ПР. ПРОСВЕЩЕНИЯ,УГ.УЛ. КОМПОЗИТОРОВ",60.056756,30.315215,0,2,bus
1909,1909,ПР. СИЗОВА,60.012295,30.274703,0,2,bus
1908,1908,ПР. СИЗОВА,60.005849,30.274263,0,2,bus
1910,1910,ПР. СЛАВЫ,59.866530,30.418844,0,2,bus
1896,1896,"ПР. НЕПОКОРЁННЫХ,6",59.997452,30.372391,0,2,bus
1898,1898,"ПР. ОБУХОВСКОЙ ОБОРОНЫ,239",59.862929,30.475412,0,2,bus
1899,1899,"ПР. ОБУХОВСКОЙ ОБОРОНЫ,251",59.860990,30.477900,0,2,bus
1900,1900,ПР. ПАРХОМЕНКО,60.000137,30.329257,0,2,bus
1901,1901,УЛ. ПЕРЕДОВИКОВ,59.941788,30.466626,0,2,bus
1902,1902,ПР. ПРОСВЕЩЕНИЯ,60.048222,30.353316,0,2,bus
1903,1903,ПР. ПРОСВЕЩЕНИЯ УГ. ДЕМЬЯНА БЕДНОГО,60.041954,30.387217,0,2,bus
1890,1890,ПР. НАУКИ УГ. УЛ. БУТЛЕРОВА,60.011282,30.404694,0,2,bus
1891,1891,"ПР. НАУКИ,12",60.014643,30.390279,0,2,bus
1892,1892,"ПР. НАУКИ,28",60.008183,30.416538,0,2,bus
1893,1893,"ПР. НАУКИ,73",60.004578,30.431120,0,2,bus
1894,1894,"ПИСКАРЁВСКИЙ ПР., 56",59.993549,30.434920,0,2,bus
1895,1895,ПР. НЕПОКОРЁННЫХ УГ. УЛ.  БУТЛЕРОВА,59.995059,30.391671,0,2,bus
1882,1882,ПР. НАРОДНОГО ОПОЛЧЕНИЯ,59.852036,30.279208,0,2,bus
1881,1881,ПР. МЕТАЛЛИСТОВ,59.953500,30.420922,0,2,bus
1880,1880,ПР. МЕТАЛЛИСТОВ,59.971520,30.397070,0,2,bus
17310,17310,"ВАРШАВСКАЯ УЛ.,73",59.844039,30.313897,0,2,bus
1887,1887,"ПР. НАСТАВНИКОВ,УГ. ИРИНОВСКОГО ПР.",59.958200,30.478168,0,2,bus
17309,17309,"ВАРШАВСКАЯ УЛ.,73",59.843840,30.315360,0,2,bus
1884,1884,ПР. НАСТАВНИКОВ,59.950413,30.485542,0,2,bus
1875,1875,"ПР. МАРШАЛА ЖУКОВА,УГ. ПР. ВЕТЕРАНОВ",59.832334,30.193547,0,2,bus
1874,1874,"ПР. МАРШАЛА ЖУКОВА,УГ. ЛЕНИНСКОГО ПР.",59.851426,30.220557,0,2,bus
1873,1873,"ПР. МАРШАЛА ЖУКОВА,60",59.838709,30.202155,0,2,bus
1872,1872,"ПР. МАРШАЛА ЖУКОВА,32",59.855732,30.227414,0,2,bus
1878,1878,ПР. МЕТАЛЛИСТОВ,59.959593,30.421812,0,2,bus
1866,1866,"ПР. М. ТОРЕЗА,82",60.016814,30.337593,0,2,bus
1867,1867,ПР. МАРШАЛА БЛЮХЕРА,59.976784,30.436436,0,2,bus
1864,1864,ПР. М. ТОРЕЗА УГ. УЛ. ЕСЕНИНА,60.025790,30.325670,0,2,bus
1865,1865,"ПР.  ТОРЕЗА,21",60.002843,30.359394,0,2,bus
1870,1870,ПР. МАРШАЛА ЖУКОВА,59.859443,30.233717,0,2,bus
1871,1871,"ПР. МАРШАЛА ЖУКОВА,30",59.857494,30.230011,0,2,bus
1869,1869,"ПР. МАРШАЛА БЛЮХЕРА,УГ. КОНДРАТЬЕВСКОГО ПР.",59.979393,30.394789,0,2,bus
1858,1858,ПР. ЛУНАЧАРСКОГО УГ. УЛ. КОМПОЗИТОРОВ,60.044839,30.320215,0,2,bus
1859,1859,ПР. ЛУНАЧАРСКОГО УГ. УЛ. УШИНСКОГО,60.029221,30.404992,0,2,bus
1857,1857,ПР. ЛУНАЧАРСКОГО УГ. ПР. ХУДОЖНИКОВ,60.040423,30.347650,0,2,bus
1860,1860,ПР. ЛУНАЧАРСКОГО УГ.ПР.ХУДОЖНИКОВ,60.039458,30.346189,0,2,bus
1861,1861,"ПР. ЛУНАЧАРСКОГО,86",60.032466,30.384936,0,2,bus
1853,1853,"ПР. ЛЕНИНА, УГ. УЛ. ТАНКИСТОВ",59.749480,30.562300,0,2,bus
1852,1852,"ПР. КУЛЬТУРЫ,29",60.048414,30.377502,0,2,bus
1854,1854,"ПР. ЛЕНИНА,53",59.750278,30.570339,0,2,bus
1849,1849,ПР. КУЛЬТУРЫ ПО ПР. ЛУНАЧАРСКОГО,60.036454,30.365181,0,2,bus
1848,1848,ПР. КУЗНЕЦОВА,59.859007,30.189216,0,2,bus
1850,1850,ПР. КУЛЬТУРЫ УГ. ПРИДОРОЖНОЙ АЛЛЕИ,60.051946,30.378408,0,2,bus
1845,1845,ПР. КОСЫГИНА,59.945641,30.491140,0,2,bus
17396,17396,САПЕРНЫЙ ПЕР.,59.759413,30.599153,0,2,bus
17397,17397,УЛ. ТРУДА,59.750076,30.602514,0,2,bus
1844,1844,ПР. КОСЫГИНА,59.946498,30.505160,0,2,bus
17398,17398,БУЛЬВАР СВОБОДЫ,59.747390,30.600560,0,2,bus
1847,1847,"ПР. КОСЫГИНА,УГ. УЛ. ПЕРЕДОВИКОВ",59.942273,30.465005,0,2,bus
1846,1846,"ПР. КОСЫГИНА,УГ. ИНДУСТРИАЛЬНОГО ПР.",59.944163,30.477635,0,2,bus
17392,17392,"УЛ. ЗАГОРОДНАЯ ,55",59.777166,30.593646,0,2,bus
1841,1841,"ПР. КОСМОНАВТОВ,74",59.838654,30.358512,0,2,bus
17393,17393,ШКОЛА № 452,59.772851,30.594118,0,2,bus
1840,1840,ПР. КОСМОНАВТОВ,59.834510,30.359220,0,2,bus
17394,17394,ДОРОГА К КИРПИЧНОМУ ЗАВОДУ,59.770206,30.593652,0,2,bus
1843,1843,"ПР. КОСМОНАВТОВ,УГ. КУЗНЕЦОВСКОЙ УЛ.",59.871589,30.344110,0,2,bus
17395,17395,ДЕРЕВООБРАБАТЫВАЮЩИЙ КОМБИНАТ,59.765774,30.596259,0,2,bus
1842,1842,"ПР. КОСМОНАВТОВ,УГ. ЗВЕЗДНОЙ УЛ.",59.834916,30.360176,0,2,bus
1836,1836,"ПР. КОРОЛЕВА,ПОЛИКЛИНИКА",60.010191,30.289954,0,2,bus
17389,17389,"УСТЬ-ИЖОРЫ, УЛ. ТРУДА,24",59.797130,30.604850,0,2,bus
17388,17388,СЛАВЯНСКАЯ ДОРОГА,59.803744,30.595162,0,2,bus
1837,1837,"ПР. КОРОЛЕВА,УГ. КОЛОМЯЖСКОГО ПР.",60.009575,30.294758,0,2,bus
17391,17391,"КОЛПИНО, 2-Е ОТД. К-ТА ""ПОБЕДА""",59.781384,30.593732,0,2,bus
17390,17390,"УСТЬ-ИЖОРА,Ж.-Д. ПЕРЕЕЗД",59.790124,30.600590,0,2,bus
1839,1839,ПР. КОСМОНАВТОВ,59.852704,30.353613,0,2,bus
17385,17385,"УСТЬ-ИЖОРА, ПОЛЕВАЯ УЛ.",59.816013,30.574549,0,2,bus
1833,1833,"ПР. ИСПЫТАТЕЛЕЙ,УГ. СЕРЕБРИСТОГО БУЛЬВАРА",60.004890,30.281884,0,2,bus
17387,17387,"УСТЬ-ИЖОРА, ПЛАНОВАЯ УЛ.",59.807543,30.589553,0,2,bus
1834,1834,"ПР. ИСПЫТАТЕЛЕЙ,УНИВЕРСАМ",60.003889,30.289356,0,2,bus
17386,17386,ДОРОГА НА МЕТАЛЛОСТРОЙ,59.812634,30.581909,0,2,bus
1835,1835,ПР. КОРОЛЕВА,60.009922,30.295814,0,2,bus
1828,1828,"УНИВЕРСАМ ""ТАЛЛИНСКИЙ""",59.833336,30.211937,0,2,bus
17380,17380,"УСТЬ-ИЖОРА, ПЛАНОВАЯ УЛ.",59.808813,30.588124,0,2,bus
1830,1830,"ПР. ВЕТЕРАНОВ,УГ. УЛ. ПОГР. ГАРЬКАВОГО",59.835290,30.147813,0,2,bus
17383,17383,"ПР. ОБУХОВСКОЙ ОБОРОНЫ, 126",59.855437,30.480575,0,2,bus
1831,1831,ПР. ЕЛИЗАРОВА,59.894059,30.413667,0,2,bus
17382,17382,"УСТЬ-ИЖОРА, ПОЛЕВАЯ УЛ.",59.816366,30.573929,0,2,bus
17377,17377,"УСТЬ-ИЖОРА, Ж.-Д. ПЕРЕЕЗД",59.789880,30.601010,0,2,bus
1824,1824,"ПР. БУДЕННОГО,ТРАМВАЙНАЯ ОСТАНОВКА",59.850704,30.090433,0,2,bus
17376,17376,"КОЛПИНО, 2-Е ОТД. К-ТА ""ПОБЕДА""",59.781230,30.594003,0,2,bus
1825,1825,ПР. ВЕТЕРАНОВ,59.835036,30.156638,0,2,bus
17379,17379,СЛАВЯНСКАЯ ДОРОГА,59.803148,30.596618,0,2,bus
1827,1827,ПР. ВЕТЕРАНОВ,59.833602,30.175777,0,2,bus
17378,17378,"УСТЬ-ИЖОРА,УЛ. ТРУДА,24",59.797051,30.605271,0,2,bus
17374,17374,ШКОЛА № 452,59.772915,30.594386,0,2,bus
1823,1823,ПР. БУДЕННОГО,59.852684,30.089191,0,2,bus
17375,17375,"УЛ. ЗАГОРОДНАЯ, 55",59.777088,30.593989,0,2,bus
1822,1822,"ПР. БОЛЬШЕВИКОВ,77",59.874744,30.478675,0,2,bus
17372,17372,ДЕРЕВООБРАБАТЫВАЮЩИЙ КОМБИНАТ,59.765787,30.596623,0,2,bus
1821,1821,"ПР. БОЛЬШЕВИКОВ,33",59.895027,30.491227,0,2,bus
17373,17373,ДОРОГА К КИРПИЧНОМУ ЗАВОДУ,59.770119,30.593998,0,2,bus
17370,17370,"УЛ. ТРУДА,УЛ. УРИЦКОГО",59.750034,30.602873,0,2,bus
1819,1819,ПОЭТИЧЕСКИЙ БУЛЬВАР,60.043492,30.350140,0,2,bus
17371,17371,САПЕРНЫЙ ПЕР.,59.760510,30.598400,0,2,bus
1818,1818,ПОЧТОВЫЙ ПЕР.,59.851464,30.053288,0,2,bus
1817,1817,ПОЧТА,59.915200,29.772700,0,2,bus
17369,17369,БУЛЬВАР СВОБОДЫ,59.747338,30.599316,0,2,bus
1815,1815,ПОТЕМКИНСКАЯ УЛ.,59.943929,30.365925,0,2,bus
1814,1814,ПОСТ ГАИ,59.786511,30.688510,0,2,bus
1813,1813,"ПОС.""КРАСНАЯ ЗАРЯ """,59.837031,30.564268,0,2,bus
1812,1812,ПОС. ШУШАРЫ,59.813100,30.380823,0,2,bus
1811,1811,ПОС. ПРОСВЕЩЕНИЯ,59.894290,29.861160,0,2,bus
1810,1810,ПОС. ДЕТСКОСЕЛЬСКИЙ,59.730068,30.463968,0,2,bus
1809,1809,ПОЛЮСТРОВСКИЙ ПР. УГОЛ ПИСКАРЁВСКОГО ПР.,59.963400,30.407610,0,2,bus
1806,1806,ПОЛТАВСКАЯ УЛ.,59.928370,30.372270,0,2,bus
1804,1804,ПОЛИКЛИНИКА № 99,60.055234,30.345599,0,2,bus
1805,1805,ПОЛИТЕХНИЧЕСКИЙ ИНСТИТУТ,60.003992,30.388770,0,2,bus
1802,1802,ПОЛИКЛИНИКА № 107,59.951200,30.500060,0,2,bus
1803,1803,ПОЛИКЛИНИКА № 96,60.043412,30.380208,0,2,bus
1800,1800,ПОЛЕВАЯ САБИРОВСКАЯ УЛ.,59.999641,30.268750,0,2,bus
1801,1801,ПОЛИКЛИНИКА,59.992076,30.212134,0,2,bus
1798,1798,ПОЛЕВАЯ УЛ.,59.785901,30.140020,0,2,bus
1799,1799,"ПОС. УСТЬ-ИЖОРА, ПОЛЕВАЯ УЛ.",59.816350,30.574000,0,2,bus
1796,1796,ПЛОЩАДЬ ТУРГЕНЕВА,59.918107,30.290190,0,2,bus
1797,1797,ПОКЛОННАЯ ГОРА,60.031595,30.319959,0,2,bus
1795,1795,ПЛОЩАДЬ ТРУДА,59.931945,30.291590,0,2,bus
1792,1792,ПЛОЩАДЬ РЕПИНА,59.917516,30.280273,0,2,bus
2032,2032,"СОВЕТСКИЙ ПР.,23",59.831077,30.529058,0,2,bus
2033,2033,"СОВЕТСКИЙ ПР.,32",59.825373,30.552272,0,2,bus
2034,2034,"СОВХОЗ ""ДЕТСКОСЕЛЬСКИЙ""",59.727016,30.458621,0,2,bus
2035,2035,СОВХОЗ СЕЛЬЦО,59.629181,29.536034,0,2,bus
2036,2036,СОЛОМАХИНСКИЙ ПРОЕЗД,59.851968,30.246393,0,2,bus
2038,2038,СОФИЙСКАЯ УЛ.,59.866516,30.414574,0,2,bus
2039,2039,СОФИЙСКАЯ УЛ.,59.866178,30.417181,0,2,bus
2040,2040,СОФИЙСКАЯ УЛ.,59.878301,30.398846,0,2,bus
2041,2041,СОФИЙСКАЯ УЛ. 43,59.873411,30.404263,0,2,bus
2042,2042,СОФИЙСКАЯ УЛ. 55,59.869692,30.409791,0,2,bus
17210,17210,ДОРОГА НА ПЕТРО-СЛАВЯНКУ,59.796824,30.559158,0,2,bus
2043,2043,СОФИЙСКАЯ УЛ. УГ. ПР. СЛАВЫ,59.866516,30.414574,0,2,bus
17215,17215,СОЛОМАХИНСКИЙ ПРОЕЗД,59.851756,30.247840,0,2,bus
2016,2016,СЕРАФИМОВСКОЕ КЛАДБИЩЕ,60.000424,30.262806,0,2,bus
2021,2021,СЕРЕБРИСТЫЙ БУЛЬВАР ПО БОГАТЫРСКОМУ ПР.,59.999238,30.282011,0,2,bus
2020,2020,СЕРЕБРИСТЫЙ БУЛЬВАР (ПО ПР. КОРОЛЕВА),60.010972,30.283966,0,2,bus
2025,2025,"СЕРТОЛОВО,УЛ.МОЛОДЦОВА",60.138139,30.212399,0,2,bus
2024,2024,"СЕРТОЛОВО,ДОРОГА К СТ. ПЕСОЧНАЯ",60.147846,30.200220,0,2,bus
2027,2027,СИТЦЕВАЯ УЛ.,59.999306,30.234101,0,2,bus
2029,2029,СКВЕР ГАЛИНЫ СТАРОВОЙТОВОЙ,59.938099,30.374913,0,2,bus
2028,2028,СКАЧКИ,59.757779,30.109242,0,2,bus
2031,2031,СМОЛЬНЫЙ УНИВЕРСИТЕТ,59.973130,30.379519,0,2,bus
2002,2002,СВЕТЛАНОВСКАЯ ПЛОЩАДЬ,60.003952,30.329408,0,2,bus
2003,2003,СВЕТЛАНОВСКИЙ ПР.,60.031343,30.390948,0,2,bus
17170,17170,НОВОСЕЛЬЕ,59.809575,30.076951,0,2,bus
17169,17169,"АНДРЕЕВСКАЯ УЛ., УГ. ПР. ЛЕНИНА",59.829478,30.086542,0,2,bus
17168,17168,"АНДРЕЕВСКАЯ УЛ, УГ. ПР. ЛЕНИНА",59.829230,30.085588,0,2,bus
2006,2006,СВЕТЛАНОВСКИЙ ПР. УГ. ПР. ЛУНАЧАРСКОГО,60.030704,30.391080,0,2,bus
2007,2007, СУЗДАЛЬСКИЙ ПР. ,60.046936,30.404330,0,2,bus
17174,17174,КРОНШТАДСКАЯ УЛ.,59.872936,30.254052,0,2,bus
2004,2004,СВЕТЛАНОВСКИЙ ПР.,60.010285,30.347524,0,2,bus
2005,2005,СВЕТЛАНОВСКИЙ ПР. 75,60.022563,30.377123,0,2,bus
17172,17172,"СТ. МЕТРО ""ТЕХНОЛОГИЧЕСКИЙ ИНСТИТУТ""",59.915973,30.318210,0,2,bus
2010,2010,СЕВЕРНЫЙ ПР.,60.020579,30.405465,0,2,bus
2011,2011,СЕВЕРНЫЙ ПР. УГ. ПР. ХУДОЖНИКОВ,60.032123,30.344453,0,2,bus
17176,17176,"ПР. МАРШАЛА ЖУКОВА, УГ. ЛЕНИНСКОГО ПР.",59.852349,30.219913,0,2,bus
2009,2009,СВЕТЛАНОВСКИЙ ПР. УГ. УЛ. ЖАКА ДЮКЛО,60.013097,30.352854,0,2,bus
2015,2015,СЕННАЯ ПЛОЩАДЬ,59.926012,30.315823,0,2,bus
2012,2012,СЕВЕРНЫЙ ПР. УГ. УЛ. ВАВИЛОВЫХ,60.024127,30.397889,0,2,bus
2013,2013,"СЕВЕРНЫЙ ПР.,5",60.030716,30.335329,0,2,bus
1986,1986,"С.-ПЕТЕРБУРГ,НОВОСЕЛЬЕ",59.808525,30.076712,0,2,bus
1985,1985,"РЫНОК ""КОНКУРЕНТ""",59.994477,30.410886,0,2,bus
1984,1984,РЫБИНСКАЯ УЛ.,59.912972,30.333385,0,2,bus
1990,1990,САДОВАЯ УЛ.,59.715584,30.403473,0,2,bus
1989,1989,САД ОТДЫХА,59.749073,30.596751,0,2,bus
1995,1995,"САНКТ-ПЕТЕРБУРГСКОЕ ШОССЕ, 26КМ",59.864960,29.983790,0,2,bus
1993,1993,САДОВОДСТВО,59.770946,30.235363,0,2,bus
1999,1999,"САПЕРНАЯ УЛ., 40",59.700778,30.380944,0,2,bus
1997,1997,САПЕРНАЯ УЛ. УГ. КРАСНОСЕЛЬСКОГО ШОССЕ,59.703750,30.369972,0,2,bus
1996,1996,"САНКТ-ПЕТЕРБУРГ,СОЛЯНОЙ СКЛАД,2",59.858607,30.499288,0,2,bus
1972,1972,"РЕКТОРСКИЙ ПРОЕЗД [210, 356А-ШК, 358, 359]",59.876780,29.830390,0,2,bus
17269,17269,ВОЛХОНСКОЕ ШОССЕ,59.825358,30.081489,0,2,bus
17271,17271,БРЕСТСКИЙ БУЛЬВАР,59.857098,30.198967,0,2,bus
1975,1975,"РИЖСКИЙ ПР.,УГ. СТАРОПЕТЕРГОФСКОГО ПР.",59.913145,30.276136,0,2,bus
17270,17270,УЛ. МАРШАЛА ЗАХАРОВА,59.857012,30.175890,0,2,bus
1968,1968,РАССТАННЫЙ ПЕР.,59.905686,30.356841,0,2,bus
1969,1969,РАУМСКАЯ УЛ.,59.737980,30.579730,0,2,bus
1970,1970,РЕКА ОХТА,59.958714,30.463632,0,2,bus
1971,1971,РЕКА ЕКАТЕРИНГОФКА,59.908983,30.257034,0,2,bus
1980,1980,"РУССКО-ВЫСОЦКОЕ,ПАМЯТНИК",59.690509,29.929388,0,2,bus
17276,17276,УЛ. ЧЕКИСТОВ,59.844296,30.160858,0,2,bus
1981,1981,"РУССКО-ВЫСОЦКОЕ,ШКОЛА",59.703565,29.953198,0,2,bus
1982,1982,РУЧЕЙ ДРАНИШНИК,60.131721,30.220493,0,2,bus
1983,1983,РЫБАЦКИЙ ПРОСП.,59.846619,30.483151,0,2,bus
1976,1976,РОПШИНСКОЕ ШОССЕ,59.872916,29.959191,0,2,bus
17275,17275,УЛ. ЧЕКИСТОВ,59.844161,30.160687,0,2,bus
1978,1978,"РУССКО-ВЫСОЦКОЕ,КОНТОРА",59.702291,29.946971,0,2,bus
1979,1979,"РУССКО-ВЫСОЦКОЕ,МАГАЗИН",59.698404,29.941092,0,2,bus
1957,1957,"ПУЛКОВСКОЕ ШОССЕ,5",59.838371,30.319530,0,2,bus
1956,1956,"ПУЛКОВСКОЕ ШОССЕ,13",59.832807,30.320068,0,2,bus
1959,1959,"ПУШКИН,КУЗЬМИНСКОЕ КЛАДБИЩЕ (ПО ТРЕБОВАНИЮ)",59.748330,30.392648,0,2,bus
1958,1958,"ПУЛКОВСКОЕ ШОССЕ,9",59.835148,30.319772,0,2,bus
1953,1953,ПУЛКОВО,59.770778,30.332222,0,2,bus
1952,1952,ПРОФИЛАКТОРИЙ,59.792997,30.675785,0,2,bus
1955,1955,"""ПУЛКОВСКОЕ""",59.762516,30.363286,0,2,bus
1964,1964,РАЗВОДНАЯ УЛ. УГ. ЭРЛЕРОВСКОГО БУЛЬВАРА,59.873231,29.899157,0,2,bus
1967,1967,РАССТАННАЯ УЛ.,59.907371,30.345005,0,2,bus
1960,1960,РАБФАКОВСКАЯ УЛ.,59.857860,30.476740,0,2,bus
17258,17258,УЛ. БРЯНЦЕВА,60.043129,30.408912,0,2,bus
1963,1963,РАЗВОДНАЯ УЛ. УГ. БУЛЬВАРА РАЗВЕДЧИКОВ,59.877587,29.901894,0,2,bus
1962,1962,РАЗВОДНАЯ УЛ.,59.881080,29.902750,0,2,bus
1942,1942,ПРАЖСКАЯ УЛ. УГ. ПР. СЛАВЫ,59.862633,30.402863,0,2,bus
1943,1943,АДМИНИСТРАЦИЯ ФРУНЗЕНСКОГО РАЙОНА,59.864826,30.400339,0,2,bus
1940,1940,ПРАЖСКАЯ УЛ.,59.874264,30.387740,0,2,bus
1941,1941,"ПРАЖСКАЯ УЛ., 32",59.870770,30.393124,0,2,bus
17235,17235,"УЛ. ЗИНЫ ПОРТНОВОЙ, УГ. ЛЕНИНСКОГО ПРОСПЕКТА",59.852420,30.256369,0,2,bus
1938,1938,ПРАВЛЕНСКАЯ УЛ.,59.880310,29.908000,0,2,bus
17234,17234,"СТ. МЕТРО ""ПАРК ПОБЕДЫ""",59.864723,30.322137,0,2,bus
1939,1939,ПРАЖСКАЯ УЛ.,59.862130,30.404238,0,2,bus
17233,17233,"СТ. МЕТРО ""ПАРК ПОБЕДЫ""",59.864987,30.323124,0,2,bus
1937,1937,ПР. ЮРИЯ ГАГАРИНА,59.864423,30.336102,0,2,bus
1950,1950,ПРОЛЕТАРСКАЯ УЛ. УГ. УЛ. ВОЛОДАРСКОГО,59.740773,30.593256,0,2,bus
1951,1951,ПРОМКОМБИНАТ,60.078772,30.252053,0,2,bus
1948,1948,ПРОСПЕКТ РАЕВСКОГО,60.015656,30.359817,0,2,bus
1949,1949,ПРОЛЕТАРСКАЯ УЛ. УГ. УЛ. В. СЛУЦКОЙ,59.741056,30.581163,0,2,bus
1946,1946,"ПРИМОРСКИЙ ПР.,161",59.986176,30.192272,0,2,bus
1947,1947,ПРОГОННАЯ УЛ.,59.850191,30.480334,0,2,bus
17242,17242,УЛ. ВОССТАНОВЛЕНИЯ,59.723638,30.077240,0,2,bus
1944,1944,ПРИБРЕЖНАЯ УЛ. УНИВЕРСАМ,59.833471,30.505941,0,2,bus
17241,17241,УЛ. ВОССТАНОВЛЕНИЯ,59.723524,30.076079,0,2,bus
1945,1945,"ПРИМОРСКИЙ ПР.,139",59.983128,30.212463,0,2,bus
17240,17240,"УЛ. ПАРТИЗАНА ГЕРМАНА, УГ.УЛ.ЧЕКИСТОВХ",59.842600,30.173349,0,2,bus
1926,1926,ПР. ЭНГЕЛЬСА УГ. ПР. ЛУНАЧАРСКОГО,60.044257,30.327197,0,2,bus
1925,1925,ПР. ШАУМЯНА,59.930087,30.418496,0,2,bus
1924,1924,"ПР. ХУДОЖНИКОВ,УГ. СИРЕНЕВОГО БУЛЬВАРА",60.053277,30.356616,0,2,bus
1923,1923,ПР. ХУДОЖНИКОВ УГ. УЛ. СИКЕЙРОСА,60.035735,30.342758,0,2,bus
17218,17218,УЛ. ГЕРОЕВ,59.857820,30.165390,0,2,bus
1922,1922,ПР. ХУДОЖНИКОВ,60.055525,30.360210,0,2,bus
17216,17216,ПОС. МЕТАЛЛОСТРОЙ,59.809187,30.573567,0,2,bus
1921,1921,"ПР. УДАРНИКОВ,УГ. ПР. НАСТАВНИКОВ",59.954619,30.482799,0,2,bus
1920,1920,"ПР. УДАРНИКОВ,29",59.952704,30.476926,0,2,bus
1935,1935,"ПР. ЭНТУЗИАСТОВ,30",59.949007,30.480283,0,2,bus
1934,1934,ПР. ЭНТУЗИАСТОВ,59.950972,30.486472,0,2,bus
1933,1933,ПР. ЭНТУЗИАСТОВ,59.953750,30.497447,0,2,bus
1932,1932,"ПР. ЭНЕРГЕТИКОВ,72",59.972798,30.436648,0,2,bus
1931,1931,"ПР. ЭНЕРГЕТИКОВ,46",59.963555,30.437556,0,2,bus
1928,1928,"ПР. ЭНГЕЛЬСА,УГ. 3-ГО ВЕРХНЕГО ПЕРЕУЛКА",60.065990,30.345355,0,2,bus
2200,2200,УЛ. ГИДРОТЕХНИКОВ,60.006802,30.391671,0,2,bus
19545,19545,"П\Л ЗАВОДА ""КРАСНАЯ БАВАРИЯ""",60.194340,29.855760,0,2,bus
2201,2201,УЛ. ГЛИНКИ,59.851742,30.069340,0,2,bus
2202,2202,УЛ. ГОГОЛЯ,59.854143,30.024933,0,2,bus
2203,2203,УЛ. ДЕМЬЯНА БЕДНОГО ПО ПР. ЛУНАЧАРСКОГО,60.033701,30.378569,0,2,bus
19546,19546,"П\Л ЗАВОДА ""КРАСНАЯ БАВАРИЯ""",60.194393,29.855288,0,2,bus
2205,2205,"УЛ. ДЕКАБРИСТОВ,УГ. АНГЛИЙСКОГО ПР.",59.923268,30.284574,0,2,bus
19548,19548,"ЛЕНИНСКОЕ, СОВЕТСКАЯ УЛ. 89",60.199758,29.859236,0,2,bus
19551,19551,ПЕРЕВАЛОЧНАЯ БАЗА,60.226237,29.683534,0,2,bus
2207,2207,УЛ. ДЕСАНТНИКОВ,59.855790,30.203374,0,2,bus
19550,19550,"ТУРИСТИЧЕСКАЯ БАЗА ""РАЗЛИВ""",60.071095,29.971871,0,2,bus
19537,19537,"САНАТОРИЙ ""БАЛТИЙСКИЙ БЕРЕГ""",60.189740,29.726171,0,2,bus
2193,2193,"УЛ. ВОРОШИЛОВА,1",59.922112,30.442252,0,2,bus
19536,19536,"Д\О ""ЧАРОДЕЙКА""",60.188999,29.736273,0,2,bus
2194,2194,"УЛ. ВОРОШИЛОВА,ПТУ",59.923612,30.444612,0,2,bus
19538,19538,"Д\О ""ЭНЕРГЕТИК""",60.191276,29.712782,0,2,bus
2195,2195,УЛ. ВОССТАНОВЛЕНИЯ,59.722842,30.079730,0,2,bus
2196,2196,УЛ. ГАСТЕЛЛО,59.858327,30.321390,0,2,bus
19541,19541,ДОР. В ПОС.МЕТРОСТРОЯ,60.185147,29.861575,0,2,bus
2197,2197,УЛ. ГЕНЕРАЛА СИМОНЯКА,59.833196,30.203660,0,2,bus
19540,19540,"РЕПИНО, ВОКЗАЛ",60.172599,29.871504,0,2,bus
2198,2198,УЛ. ГЕНЕРАЛА ХАЗОВА,59.737669,30.395803,0,2,bus
19543,19543,ПОДСОБНОЕ ХОЗЯЙСТВО,60.190479,29.861752,0,2,bus
2199,2199,"УЛ. ГЕНЕРАЛА ХАЗОВА, 5",59.737781,30.400581,0,2,bus
19542,19542,ПОДСОБНОЕ ХОЗЯЙСТВО,60.190625,29.861913,0,2,bus
2185,2185,"УЛ. ВАВИЛОВЫХ,11",60.022142,30.392223,0,2,bus
2184,2184,УЛ. ВАВИЛОВЫХ УГ. ПР. НАУКИ,60.017091,30.386810,0,2,bus
19529,19529,ЛЕСНАЯ УЛ.,60.166689,29.833049,0,2,bus
2187,2187,УЛ. ВЕРНОСТИ,60.007714,30.402705,0,2,bus
19530,19530,"ПОС. РЕПИНО, ПРИМОРСКОЕ ШОССЕ, 469",60.169086,29.819571,0,2,bus
2186,2186,УЛ. ВАТУТИНА,59.962930,30.379862,0,2,bus
19531,19531,КАВАЛЕРИЙСКАЯ УЛ.,60.172938,29.805627,0,2,bus
19532,19532,МОРСКАЯ УЛ.,60.176123,29.797199,0,2,bus
2189,2189,УЛ. ВЕРЫ СЛУЦКОЙ,59.741570,30.580330,0,2,bus
2188,2188,УЛ. ВЕРНОСТИ,60.010098,30.394992,0,2,bus
19533,19533,КОМАРОВСКИЙ БЕРЕГ,60.181417,29.769293,0,2,bus
19534,19534,СПОРТИВНАЯ УЛ.,60.185236,29.756043,0,2,bus
2191,2191,УЛ. ВОЛОДАРСКОГО,59.740419,30.593336,0,2,bus
19535,19535,"Г. ЗЕЛЕНОГОРСК, П/Т ""БЕЛОЕ СОЛНЦЕ""",60.187499,29.746079,0,2,bus
2190,2190,УЛ. ВОЗРОЖДЕНИЯ,59.883013,30.264060,0,2,bus
19520,19520,ПУХТОЛОВА ГОРА,60.230337,29.692245,0,2,bus
19521,19521,"ПАНСИОНАТ ""ЗАРЯ""",60.162156,29.878253,0,2,bus
2179,2179,УЛ. БРЯНЦЕВА,60.042754,30.409985,0,2,bus
19522,19522,ПУХТОЛОВА ГОРА,60.229943,29.690217,0,2,bus
2178,2178,УЛ. БРАТЬЕВ РАДЧЕНКО,59.750606,30.579101,0,2,bus
2181,2181,УЛ. БУТЛЕРОВА,59.994342,30.392894,0,2,bus
19524,19524,РЕШЕТНИКОВО,60.237517,29.695238,0,2,bus
2180,2180,УЛ. БУРЦЕВА,59.836480,30.199089,0,2,bus
19526,19526,"ГОСТИНИЦА ""РЕПИНСКАЯ""",60.163407,29.854952,0,2,bus
2183,2183,УЛ. ВАВИЛОВА,59.740818,30.587584,0,2,bus
2182,2182,"УЛ. В. СЛУЦКОЙ,УГ. ЗАВОДСКОГО ПР.",59.730683,30.577668,0,2,bus
19527,19527,КРУГОВАЯ УЛ.,60.163357,29.843306,0,2,bus
2234,2234,УЛ. КОЗЛОВА,59.834840,30.222148,0,2,bus
19579,19579,ДОРОГА НА СИМАГИНО,60.252160,29.790750,0,2,bus
2235,2235,"УЛ. КОЛЛОНТАЙ,19",59.918059,30.464060,0,2,bus
19578,19578,ДОРОГА НА СИМАГИНО,60.253310,29.791540,0,2,bus
2232,2232,УЛ. КАРПИНСКОГО,60.006262,30.424150,0,2,bus
19577,19577,"ОЗЕРО ""КРАСАВИЦА""",60.247223,29.784729,0,2,bus
2233,2233,УЛ. КНИПОВИЧ,59.910165,30.402157,0,2,bus
19576,19576,"ОЗЕРО ""КРАСАВИЦА""",60.247053,29.785309,0,2,bus
2238,2238,УЛ. КОМИССАРА СМИРНОВА,59.962184,30.344641,0,2,bus
19583,19583,ДОРОГА К ДОМУ-МУЗЕЮ В.И. ЛЕНИНА,60.268780,29.795980,0,2,bus
19582,19582,ДОРОГА НА ИЛЬИЧЕВО,60.257660,29.794510,0,2,bus
19581,19581,"ПРИМОРСКОЕ ШОССЕ, 269",60.079454,29.962071,0,2,bus
2236,2236,"УЛ. КОЛЛОНТАЙ,УГ. ИСКРОВСКОГО ПР.",59.915972,30.456901,0,2,bus
2237,2237,"УЛ. КОЛЛОНТАЙ,УГ. ПР. СОЛИДАРНОСТИ",59.924286,30.488670,0,2,bus
19580,19580,ДОРОГА НА ИЛЬИЧЕВО,60.257780,29.795030,0,2,bus
19571,19571,УЛ. МУРОМЦЕВА,60.039648,29.978748,0,2,bus
2226,2226,"УЛ. ЗИНЫ ПОРТНОВОЙ,1",59.856223,30.256195,0,2,bus
19570,19570,МОРСКАЯ УЛ.,60.100361,29.955805,0,2,bus
19569,19569,"САНАТОРИИ ""БЕЛЫЕ НОЧИ"" И ""ДЮНЫ""",60.122207,29.957195,0,2,bus
2224,2224,УЛ. ЗАЙЦЕВА,59.872365,30.265685,0,2,bus
2225,2225,УЛ. ЗЕНИТЧИКОВ,59.873647,30.259073,0,2,bus
19568,19568,"Ж.Д. СТ. ""ГОРСКАЯ""",60.040141,29.977407,0,2,bus
19575,19575,38 КВАРТАЛ,60.076532,29.964968,0,2,bus
2230,2230,УЛ. К. МАРКСА,59.749863,30.587820,0,2,bus
2231,2231,"УЛ. КАМЫШОВАЯ,УГ. СТАРОДЕРЕВЕНСКОЙ УЛ.",60.006258,30.247717,0,2,bus
19574,19574,ЛЕНИНСКОЕ,60.231683,29.852729,0,2,bus
2228,2228,УЛ. ИВАНА ФОМИНА,60.049967,30.348100,0,2,bus
19572,19572,ДИРЕКЦИЯ СОВХОЗА,60.225749,29.850733,0,2,bus
19562,19562,АТК №1,60.217262,29.726202,0,2,bus
2218,2218,"УЛ. ЕСЕНИНА,УГ. ПРИДОРОЖНОЙ АЛЛЕИ",60.057669,30.346767,0,2,bus
19563,19563,"Ж.Д. СТ. ""АЛЕКСАНДРОВСКАЯ""",60.050587,29.977182,0,2,bus
2217,2217,УЛ. ЕСЕНИНА УГ. УЛ. СИКЕЙРОСА,60.034924,30.327818,0,2,bus
19560,19560,ШКОЛА №323,60.053709,29.977686,0,2,bus
2216,2216,УЛ. ЕСЕНИНА УГ. СЕВЕРНОГО ПР.,60.029978,30.329496,0,2,bus
19561,19561,"СОВЕТСКАЯ УЛ., 57",60.208312,29.850283,0,2,bus
2223,2223,УЛ. ЖУКОВА,59.968138,30.384615,0,2,bus
19566,19566,АТК №1,60.216969,29.726266,0,2,bus
2222,2222,УЛ. ЖАРНОВЕЦКОГО,59.873086,29.907439,0,2,bus
2221,2221,"УЛ. ЖАКА ДЮКЛО,8",60.011188,30.357125,0,2,bus
19564,19564,"СОВЕТСКАЯ УЛ., 25",60.219771,29.843760,0,2,bus
2220,2220,УЛ. ЖАКА ДЮКЛО УГ. УЛ. КУРЧАТОВА,60.009060,30.360724,0,2,bus
19565,19565,РУЧЕЙНАЯ УЛ.,60.042386,29.977525,0,2,bus
19554,19554,ТЭЦ,60.122346,29.965551,0,2,bus
2211,2211,УЛ. ДОБРОВОЛЬЦЕВ,59.832996,30.166444,0,2,bus
19555,19555,"Ж.-Д. СТ. ""ТАРХОВКА""",60.060826,29.974574,0,2,bus
2209,2209,УЛ. ДИМИТРОВА,59.852250,30.399790,0,2,bus
19552,19552,ТАРХОВСКИЙ ПР. 47,60.067631,29.972396,0,2,bus
19553,19553,2 КМ,60.221024,29.712383,0,2,bus
19558,19558,"СОВЕТСКАЯ УЛ., 57",60.208674,29.851098,0,2,bus
19559,19559,ТЭЦ,60.122124,29.967071,0,2,bus
2214,2214,УЛ. ДЫБЕНКО,59.903768,30.468698,0,2,bus
2213,2213,УЛ. ДУДКО,59.886541,30.431750,0,2,bus
19556,19556,ТАРХОВСКИЙ ВОЕННЫЙ САНАТОРИЙ,60.056998,29.977182,0,2,bus
19557,19557,2 КМ,60.220673,29.712448,0,2,bus
2212,2212,УЛ. ДОБРОВОЛЬЦЕВ,59.843987,30.167489,0,2,bus
2268,2268,УЛ. ЛЕРМОНТОВА,59.722469,30.071298,0,2,bus
19485,19485,ДОРОГА К ПОС. БЕЛООСТРОВ,60.133408,29.988372,0,2,bus
19484,19484,САДОВОДСТВО СИЗ,60.130304,29.986900,0,2,bus
2269,2269,УЛ. МАРИНЕСКО,59.867960,30.268300,0,2,bus
2270,2270,УЛ. МАРШАЛА ЗАХАРОВА,59.857893,30.176769,0,2,bus
2271,2271,"УЛ. МАРШАЛА ЗАХАРОВА,33",59.850640,30.207350,0,2,bus
19486,19486,ДЮНЫ,60.142159,29.956989,0,2,bus
19481,19481,ГОРОДСКАЯ БОЛЬНИЦА № 40,60.101983,29.969789,0,2,bus
2264,2264,УЛ. ЛЕНИНА УГ. ЧКАЛОВСКОГО ПР.,59.964495,30.298121,0,2,bus
19480,19480,РЕАБИЛИТАЦИОННЫЙ ЦЕНТР,60.103811,29.964940,0,2,bus
2265,2265,УЛ. ЛЕНСОВЕТА,59.851964,30.331701,0,2,bus
19483,19483,ЗАРЕЧНАЯ ДОРОГА,60.121405,29.975300,0,2,bus
